日志存储时间:2022年9月27日 15时13分

$GNRMC,071333.00,A,3032.4967,N,10403.1160,E,0.41,278.27,270922,,,A*4A
$GNVTG,278.27,T,,M,0.419,N,0.776,K*4C
$GNGGA,071333.00,3032.5077,N,10403.0936,E,1,6,6.05,521.283,M,-35.79,M,,*65
$GBGSV,3,1,10,22,50,330,40,21,07,296,42,44,18,270,42,19,50,064,*63
$GBGSV,3,2,10,20,09,097,,35,15,217,,36,56,135,,38,49,153,*68
$GBGSV,3,3,10,39,70,001,,46,37,058,,,,,,,,,*6D
$GPGSV,4,1,13,10,62,342,28,22,25,270,45,32,45,293,44,12,20,104,*7B
$GPGSV,4,2,13,15,07,073,,18,29,180,,23,70,075,,25,19,141,*7E
$GPGSV,4,3,13,31,10,213,,194,30,117,,196,58,103,,199,46,140,*40
$GPGSV,4,4,13,24,37,045,,,,,,,,,,,,,*48
$GPGSA,A,3,10,22,32,,,,,,,,,,8.09,6.05,5.36*00
$GBGSA,A,3,22,21,44,,,,,,,,,,8.09,6.05,5.36*11
$GNRMC,071334.00,A,3032.4966,N,10403.1177,E,1.04,134.73,270922,,,A*40
$GNVTG,134.73,T,,M,1.041,N,1.928,K*4A
$GNGGA,071334.00,3032.5071,N,10403.0950,E,1,6,6.05,519.895,M,-35.79,M,,*62
$GBGSV,3,1,10,22,50,330,39,21,07,296,41,44,18,270,42,19,50,064,*6E
$GBGSV,3,2,10,20,09,097,,35,15,217,,36,56,135,,38,49,153,*68
$GBGSV,3,3,10,39,70,001,,46,37,058,,,,,,,,,*6D
$GPGSV,4,1,13,10,62,342,28,22,25,270,44,32,45,293,44,12,20,104,*7A
$GPGSV,4,2,13,15,07,073,,18,29,180,,23,70,075,,25,19,141,*7E
$GPGSV,4,3,13,31,10,213,,194,30,117,,196,58,103,,199,46,140,*40
$GPGSV,4,4,13,24,37,045,,,,,,,,,,,,,*48
$GPGSA,A,3,10,22,32,,,,,,,,,,8.09,6.05,5.36*00
$GBGSA,A,3,22,21,44,,,,,,,,,,8.09,6.05,5.36*11
$GNRMC,071335.00,V,3032.5115,N,10403.0911,E,0.45,280.54,270922,,,A*5F
$GNVTG,280.54,T,,M,0.453,N,0.839,K*45
$GNGGA,071335.00,3032.5074,N,10403.0945,E,1,6,10.94,520.109,M,-35.79,M,,*5B
$GBGSV,3,1,10,22,50,330,39,21,07,296,41,44,18,270,42,19,50,064,*6E
$GBGSV,3,2,10,20,09,097,,35,15,217,,36,56,135,,38,49,153,*68
$GBGSV,3,3,10,39,70,001,,46,37,058,,,,,,,,,*6D
$GPGSV,4,1,13,22,25,270,44,32,45,293,44,10,62,342,30,12,20,104,*73
$GPGSV,4,2,13,15,07,073,,18,29,180,,23,70,075,,25,19,141,*7E
$GPGSV,4,3,13,31,10,213,,194,30,117,,196,58,103,,199,46,140,*40
$GPGSV,4,4,13,24,37,045,,,,,,,,,,,,,*48
$GPGSA,A,3,22,32,,,,,,,,,,,14.28,10.94,9.17*0F
$GBGSA,A,3,22,21,44,,,,,,,,,,14.28,10.94,9.17*1F
$GNRMC,071335.09,A,3032.4974,N,10403.1177,E,0.78,141.18,270922,,,A*4E
$GNVTG,141.18,T,,M,0.785,N,1.454,K*4D
$GNGGA,071335.09,3032.5074,N,10403.0945,E,1,6,6.05,520.103,M,-35.79,M,,*67
$GBGSV,3,1,10,22,50,330,39,21,07,296,41,44,18,270,42,19,50,064,*6E
$GBGSV,3,2,10,20,09,097,,35,15,217,,36,56,135,,38,49,153,*68
$GBGSV,3,3,10,39,70,001,,46,37,058,,,,,,,,,*6D
$GPGSV,4,1,13,10,62,342,30,22,25,270,44,32,45,293,44,12,20,104,*73
$GPGSV,4,2,13,15,07,073,,18,29,180,,23,70,075,,25,19,141,*7E
$GPGSV,4,3,13,31,10,213,,194,30,117,,196,58,103,,199,46,140,*40
$GPGSV,4,4,13,24,37,045,,,,,,,,,,,,,*48
$GPGSA,A,3,10,22,32,,,,,,,,,,8.09,6.05,5.36*00
$GBGSA,A,3,22,21,44,,,,,,,,,,8.09,6.05,5.36*11
$GNRMC,071336.09,A,3032.5000,N,10403.1140,E,0.44,131.27,270922,,,A*46
$GNVTG,131.27,T,,M,0.447,N,0.828,K*4D
$GNGGA,071336.09,3032.5072,N,10403.0951,E,1,6,6.05,519.566,M,-35.79,M,,*6A
$GBGSV,3,1,10,22,50,330,39,21,07,296,42,44,18,270,41,19,50,064,*6E
$GBGSV,3,2,10,20,09,097,,35,15,217,,36,56,135,,38,49,153,*68
$GBGSV,3,3,10,39,70,001,,46,37,058,,,,,,,,,*6D
$GPGSV,4,1,13,10,62,342,32,22,25,270,44,32,45,293,44,12,20,104,*71
$GPGSV,4,2,13,15,07,073,,18,29,180,,23,70,075,,25,19,141,*7E
$GPGSV,4,3,13,31,10,213,,194,30,117,,196,58,103,,199,46,140,*40
$GPGSV,4,4,13,24,37,045,,,,,,,,,,,,,*48
$GPGSA,A,3,10,22,32,,,,,,,,,,8.08,6.05,5.36*01
$GBGSA,A,3,22,21,44,,,,,,,,,,8.08,6.05,5.36*10
$GNRMC,071337.00,A,3032.5024,N,10403.1107,E,0.74,128.28,270922,,,A*4F
$GNVTG,128.28,T,,M,0.747,N,1.385,K*44
$GNGGA,071337.00,3032.5069,N,10403.0959,E,1,6,6.05,518.583,M,-35.79,M,,*6A
$GBGSV,3,1,10,22,50,330,39,21,07,296,42,44,18,270,41,19,50,064,*6E
$GBGSV,3,2,10,20,09,097,,35,15,217,,36,56,135,,38,49,153,*68
$GBGSV,3,3,10,39,70,001,,46,37,058,,,,,,,,,*6D
$GPGSV,4,1,13,10,62,342,32,22,25,270,44,32,45,293,45,12,20,104,*70
$GPGSV,4,2,13,15,07,073,,18,29,180,,23,70,075,,25,19,141,*7E
$GPGSV,4,3,13,31,10,213,,194,30,117,,196,58,103,,199,46,140,*40
$GPGSV,4,4,13,24,37,045,,,,,,,,,,,,,*48
$GPGSA,A,3,10,22,32,,,,,,,,,,8.08,6.05,5.36*01
$GBGSA,A,3,22,21,44,,,,,,,,,,8.08,6.05,5.36*10
$GNRMC,071338.09,A,3032.5053,N,10403.1055,E,0.53,140.93,270922,,,A*44
$GNVTG,140.93,T,,M,0.531,N,0.983,K*44
$GNGGA,071338.09,3032.5068,N,10403.0963,E,1,6,6.05,518.026,M,-35.79,M,,*6E
$GBGSV,3,1,10,22,50,330,39,21,07,296,41,44,18,270,40,19,50,064,*6C
$GBGSV,3,2,10,20,09,097,,35,15,217,,36,56,135,,38,49,153,*68
$GBGSV,3,3,10,39,70,001,,46,37,058,,,,,,,,,*6D
$GPGSV,4,1,13,10,62,342,34,22,25,270,44,32,45,293,44,12,20,104,*77
$GPGSV,4,2,13,15,07,073,,18,29,180,,23,70,075,,25,19,141,*7E
$GPGSV,4,3,13,31,10,213,,194,30,117,,196,58,103,,199,46,140,*40
$GPGSV,4,4,13,24,37,045,,,,,,,,,,,,,*48
$GPGSA,A,3,10,22,32,,,,,,,,,,8.08,6.05,5.36*01
$GBGSA,A,3,22,21,44,,,,,,,,,,8.08,6.05,5.36*10
$GNRMC,071339.00,A,3032.5066,N,10403.1025,E,0.23,184.43,270922,,,A*4F
$GNVTG,184.43,T,,M,0.235,N,0.435,K*42
$GNGGA,071339.00,3032.5068,N,10403.0965,E,1,6,6.05,517.573,M,-35.79,M,,*6A
$GBGSV,3,1,10,22,50,330,39,21,07,296,41,44,18,270,41,19,50,064,*6D
$GBGSV,3,2,10,20,09,097,,35,15,217,,36,56,135,,38,49,153,*68
$GBGSV,3,3,10,39,70,001,,46,37,058,,,,,,,,,*6D
$GPGSV,4,1,13,10,62,342,34,22,25,270,44,32,45,293,45,12,20,104,*76
$GPGSV,4,2,13,15,07,073,,18,29,180,,23,70,075,,25,19,141,*7E
$GPGSV,4,3,13,31,10,213,,194,30,117,,196,58,103,,199,46,140,*40
$GPGSV,4,4,13,24,37,045,,,,,,,,,,,,,*48
$GPGSA,A,3,10,22,32,,,,,,,,,,8.08,6.05,5.36*01
$GBGSA,A,3,22,21,44,,,,,,,,,,8.08,6.05,5.36*10
$GNRMC,071340.00,A,3032.5074,N,10403.1002,E,0.17,190.86,270922,,,A*4C
$GNVTG,190.86,T,,M,0.172,N,0.318,K*46
$GNGGA,071340.00,3032.5069,N,10403.0966,E,1,6,6.04,517.538,M,-35.79,M,,*68
$GBGSV,3,1,10,22,50,330,39,21,07,296,42,44,18,270,41,19,50,064,*6E
$GBGSV,3,2,10,20,09,097,,35,15,217,,36,56,135,,38,49,153,*68
$GBGSV,3,3,10,39,70,001,,46,37,058,,,,,,,,,*6D
$GPGSV,4,1,13,10,62,342,34,22,25,270,43,32,45,293,45,12,20,104,*71
$GPGSV,4,2,13,15,07,073,,18,29,180,,23,70,075,,25,19,141,*7E
$GPGSV,4,3,13,31,10,213,,194,30,117,,196,58,103,,199,46,140,*40
$GPGSV,4,4,13,24,37,045,,,,,,,,,,,,,*48
$GPGSA,A,3,10,22,32,,,,,,,,,,8.08,6.04,5.36*00
$GBGSA,A,3,22,21,44,,,,,,,,,,8.08,6.04,5.36*11
$GNRMC,071341.00,A,3032.5074,N,10403.0999,E,0.10,306.20,270922,,,A*41
$GNVTG,306.20,T,,M,0.104,N,0.193,K*47
$GNGGA,071341.00,3032.5069,N,10403.0967,E,1,6,6.04,517.412,M,-35.79,M,,*61
$GBGSV,3,1,10,22,50,330,39,21,07,296,41,44,18,270,41,19,50,064,*6D
$GBGSV,3,2,10,20,09,097,,35,15,217,,36,56,135,,38,49,153,*68
$GBGSV,3,3,10,39,70,001,,46,37,058,,,,,,,,,*6D
$GPGSV,4,1,13,10,62,342,33,22,25,270,43,32,45,293,45,12,20,104,*76
$GPGSV,4,2,13,15,07,073,,18,29,180,,23,70,075,,25,19,141,*7E
$GPGSV,4,3,13,31,10,213,,194,30,117,,196,58,103,,199,46,140,*40
$GPGSV,4,4,13,24,37,045,,,,,,,,,,,,,*48
$GPGSA,A,3,10,22,32,,,,,,,,,,8.08,6.04,5.36*00
$GBGSA,A,3,22,21,44,,,,,,,,,,8.08,6.04,5.36*11
$GNRMC,071342.00,A,3032.5067,N,10403.1007,E,0.40,130.60,270922,,,A*49
$GNVTG,130.60,T,,M,0.405,N,0.750,K*49
$GNGGA,071342.00,3032.5069,N,10403.0967,E,1,6,6.04,517.381,M,-35.79,M,,*6F
$GBGSV,3,1,10,22,50,330,38,21,07,296,41,44,18,270,40,19,50,064,*6D
$GBGSV,3,2,10,20,09,097,,35,15,217,,36,56,135,,38,49,153,*68
$GBGSV,3,3,10,39,70,001,,46,37,058,,,,,,,,,*6D
$GPGSV,4,1,13,10,62,342,32,22,25,270,42,32,45,293,45,12,20,104,*76
$GPGSV,4,2,13,15,07,073,,18,29,180,,23,70,075,,25,19,141,*7E
$GPGSV,4,3,13,31,10,213,,194,30,117,,196,58,103,,199,46,140,*40
$GPGSV,4,4,13,24,37,045,,,,,,,,,,,,,*48
$GPGSA,A,3,10,22,32,,,,,,,,,,8.08,6.04,5.36*00
$GBGSA,A,3,22,21,44,,,,,,,,,,8.08,6.04,5.36*11
$GNRMC,071343.09,A,3032.5055,N,10403.1031,E,0.24,131.32,270922,,,A*41
$GNVTG,131.32,T,,M,0.243,N,0.451,K*49
$GNGGA,071343.09,3032.5069,N,10403.0969,E,1,6,6.04,517.114,M,-35.79,M,,*67
$GBGSV,3,1,10,22,50,330,39,21,07,296,42,44,18,270,41,19,50,064,*6E
$GBGSV,3,2,10,20,09,097,,35,15,217,,36,56,135,,38,49,153,*68
$GBGSV,3,3,10,39,70,001,,46,37,058,,,,,,,,,*6D
$GPGSV,4,1,13,10,62,342,32,22,25,270,43,32,45,293,45,12,20,104,*77
$GPGSV,4,2,13,15,07,073,,18,29,180,,23,70,075,,25,19,141,*7E
$GPGSV,4,3,13,31,10,213,,194,30,117,,196,58,103,,199,46,140,*40
$GPGSV,4,4,13,24,37,045,,,,,,,,,,,,,*48
$GPGSA,A,3,10,22,32,,,,,,,,,,8.07,6.04,5.35*0C
$GBGSA,A,3,22,21,44,,,,,,,,,,8.07,6.04,5.35*1D
$GNRMC,071344.00,A,3032.5044,N,10403.1054,E,0.28,309.17,270922,,,A*4E
$GNVTG,309.17,T,,M,0.288,N,0.534,K*42
$GNGGA,071344.00,3032.5068,N,10403.0971,E,1,6,6.04,516.714,M,-35.79,M,,*66
$GBGSV,3,1,10,22,50,330,39,21,07,296,42,44,18,270,41,19,50,064,*6E
$GBGSV,3,2,10,20,09,097,,35,15,217,,36,56,135,,38,49,153,*68
$GBGSV,3,3,10,39,70,001,,46,37,058,,,,,,,,,*6D
$GPGSV,4,1,13,10,62,342,31,22,25,270,43,32,45,293,45,12,20,104,*74
$GPGSV,4,2,13,15,07,073,,18,29,180,,23,70,075,,25,19,141,*7E
$GPGSV,4,3,13,31,10,213,,194,30,117,,196,58,103,,199,46,140,*40
$GPGSV,4,4,13,24,37,045,,,,,,,,,,,,,*48
$GPGSA,A,3,10,22,32,,,,,,,,,,8.07,6.04,5.35*0C
$GBGSA,A,3,22,21,44,,,,,,,,,,8.07,6.04,5.35*1D
$GNRMC,071345.00,A,3032.4961,N,10403.1126,E,0.78,116.35,270922,,,A*4D
$GNVTG,116.35,T,,M,0.782,N,1.448,K*4A
$GNGGA,071345.00,3032.5063,N,10403.0977,E,1,6,5.97,516.061,M,-35.79,M,,*66
$GBGSV,3,1,10,22,50,330,39,21,07,296,42,44,18,270,41,19,50,065,*6F
$GBGSV,3,2,10,20,09,098,,35,14,216,,36,57,134,,38,48,154,*61
$GBGSV,3,3,10,39,70,001,,46,36,057,,,,,,,,,*63
$GPGSV,4,1,13,10,62,342,31,22,25,270,43,32,45,293,46,12,21,103,*71
$GPGSV,4,2,13,15,07,074,,18,29,180,,23,69,077,,25,20,141,*79
$GPGSV,4,3,13,31,11,213,,194,30,117,,196,58,104,,199,46,140,*46
$GPGSV,4,4,13,24,36,045,,,,,,,,,,,,,*49
$GPGSA,A,3,10,22,32,,,,,,,,,,7.83,5.97,5.07*07
$GBGSA,A,3,22,21,44,,,,,,,,,,7.83,5.97,5.07*16
$GNRMC,071346.00,A,3032.4957,N,10403.1134,E,0.71,135.56,270922,,,A*45
$GNVTG,135.56,T,,M,0.719,N,1.333,K*47
$GNGGA,071346.00,3032.5060,N,10403.0982,E,1,6,5.97,515.419,M,-35.79,M,,*64
$GBGSV,3,1,10,22,50,330,39,21,07,296,41,44,18,270,42,19,50,065,*6F
$GBGSV,3,2,10,20,09,098,,35,14,216,,36,57,134,,38,48,154,*61
$GBGSV,3,3,10,39,70,001,,46,36,057,,,,,,,,,*63
$GPGSV,4,1,13,10,62,342,31,22,25,270,43,32,45,293,45,12,21,103,*72
$GPGSV,4,2,13,15,07,074,,18,29,180,,23,69,077,,25,20,141,*79
$GPGSV,4,3,13,31,11,213,,194,30,117,,196,58,104,,199,46,140,*46
$GPGSV,4,4,13,24,36,045,,,,,,,,,,,,,*49
$GPGSA,A,3,10,22,32,,,,,,,,,,7.83,5.97,5.07*07
$GBGSA,A,3,22,21,44,,,,,,,,,,7.83,5.97,5.07*16
$GNRMC,071347.00,A,3032.4954,N,10403.1128,E,1.01,127.87,270922,,,A*43
$GNVTG,127.87,T,,M,1.018,N,1.886,K*4A
$GNGGA,071347.00,3032.5057,N,10403.0987,E,1,6,5.96,514.853,M,-35.79,M,,*66
$GBGSV,3,1,10,22,50,330,40,21,07,296,42,44,18,270,42,19,50,065,*62
$GBGSV,3,2,10,20,09,098,,35,14,216,,36,57,134,,38,48,154,*61
$GBGSV,3,3,10,39,70,001,,46,36,057,,,,,,,,,*63
$GPGSV,4,1,13,10,62,342,31,22,25,270,43,32,45,293,45,12,21,103,*72
$GPGSV,4,2,13,15,07,074,,18,29,180,,23,69,077,,25,20,141,*79
$GPGSV,4,3,13,31,11,213,,194,30,117,,196,58,104,,199,46,140,*46
$GPGSV,4,4,13,24,36,045,,,,,,,,,,,,,*49
$GPGSA,A,3,10,22,32,,,,,,,,,,7.83,5.96,5.07*06
$GBGSA,A,3,22,21,44,,,,,,,,,,7.83,5.96,5.07*17
$GNRMC,071348.00,A,3032.4953,N,10403.1112,E,0.72,145.35,270922,,,A*4A
$GNVTG,145.35,T,,M,0.724,N,1.341,K*4E
$GNGGA,071348.00,3032.5054,N,10403.0990,E,1,6,5.96,514.381,M,-35.79,M,,*68
$GBGSV,3,1,10,22,50,330,39,21,07,296,42,44,18,270,42,19,50,065,*6C
$GBGSV,3,2,10,20,09,098,,35,14,216,,36,57,134,,38,48,154,*61
$GBGSV,3,3,10,39,70,001,,46,36,057,,,,,,,,,*63
$GPGSV,4,1,13,10,62,342,32,22,25,270,43,32,45,293,45,12,21,103,*71
$GPGSV,4,2,13,15,07,074,,18,29,180,,23,69,077,,25,20,141,*79
$GPGSV,4,3,13,31,11,213,,194,30,117,,196,58,104,,199,46,140,*46
$GPGSV,4,4,13,24,36,045,,,,,,,,,,,,,*49
$GPGSA,A,3,10,22,32,,,,,,,,,,7.82,5.96,5.06*06
$GBGSA,A,3,22,21,44,,,,,,,,,,7.82,5.96,5.06*17
$GNRMC,071349.00,A,3032.4941,N,10403.1112,E,0.51,150.87,270922,,,A*44
$GNVTG,150.87,T,,M,0.518,N,0.960,K*46
$GNGGA,071349.00,3032.5051,N,10403.0994,E,1,6,5.96,513.985,M,-35.79,M,,*61
$GBGSV,3,1,10,22,50,330,38,21,07,296,41,44,18,270,43,19,50,065,*6F
$GBGSV,3,2,10,20,09,098,,35,14,216,,36,57,134,,38,48,154,*61
$GBGSV,3,3,10,39,70,001,,46,36,057,,,,,,,,,*63
$GPGSV,4,1,13,10,62,342,32,22,25,270,42,32,45,293,45,12,21,103,*70
$GPGSV,4,2,13,15,07,074,,18,29,180,,23,69,077,,25,20,141,*79
$GPGSV,4,3,13,31,11,213,,194,30,117,,196,58,104,,199,46,140,*46
$GPGSV,4,4,13,24,36,045,,,,,,,,,,,,,*49
$GPGSA,A,3,10,22,32,,,,,,,,,,7.82,5.96,5.06*06
$GBGSA,A,3,22,21,44,,,,,,,,,,7.82,5.96,5.06*17
$GNRMC,071350.00,A,3032.4944,N,10403.1101,E,0.55,125.00,270922,,,A*42
$GNVTG,125.00,T,,M,0.555,N,1.029,K*47
$GNGGA,071350.00,3032.5048,N,10403.0997,E,1,6,5.96,513.524,M,-35.79,M,,*65
$GBGSV,3,1,10,22,50,330,38,21,07,296,41,44,18,270,43,19,50,065,*6F
$GBGSV,3,2,10,20,09,098,,35,14,216,,36,57,134,,38,48,154,*61
$GBGSV,3,3,10,39,70,001,,46,36,057,,,,,,,,,*63
$GPGSV,4,1,13,10,62,342,32,22,25,270,41,32,45,293,44,12,21,103,*72
$GPGSV,4,2,13,15,07,074,,18,29,180,,23,69,077,,25,20,141,*79
$GPGSV,4,3,13,31,11,213,,194,30,117,,196,58,104,,199,46,140,*46
$GPGSV,4,4,13,24,36,045,,,,,,,,,,,,,*49
$GPGSA,A,3,10,22,32,,,,,,,,,,7.82,5.96,5.06*06
$GBGSA,A,3,22,21,44,,,,,,,,,,7.82,5.96,5.06*17
$GNRMC,071351.00,A,3032.4953,N,10403.1080,E,0.36,185.72,270922,,,A*47
$GNVTG,185.72,T,,M,0.366,N,0.678,K*4D
$GNGGA,071351.00,3032.5045,N,10403.0999,E,1,6,5.96,513.299,M,-35.79,M,,*66
$GBGSV,3,1,10,22,50,330,39,21,07,296,41,44,18,270,44,19,50,065,*69
$GBGSV,3,2,10,20,09,098,,35,14,216,,36,57,134,,38,48,154,*61
$GBGSV,3,3,10,39,70,001,,46,36,057,,,,,,,,,*63
$GPGSV,4,1,13,10,62,342,33,22,25,270,41,32,45,293,44,12,21,103,*73
$GPGSV,4,2,13,15,07,074,,18,29,180,,23,69,077,,25,20,141,*79
$GPGSV,4,3,13,31,11,213,,194,30,117,,196,58,104,,199,46,140,*46
$GPGSV,4,4,13,24,36,045,,,,,,,,,,,,,*49
$GPGSA,A,3,10,22,32,,,,,,,,,,7.82,5.96,5.06*06
$GBGSA,A,3,22,21,44,,,,,,,,,,7.82,5.96,5.06*17
$GNRMC,071352.00,A,3032.4962,N,10403.1063,E,0.96,117.32,270922,,,A*4E
$GNVTG,117.32,T,,M,0.962,N,1.782,K*49
$GNGGA,071352.00,3032.5043,N,10403.1001,E,1,6,5.96,513.084,M,-35.79,M,,*64
$GBGSV,3,1,10,22,50,330,39,21,07,296,42,44,18,270,44,19,50,065,*6A
$GBGSV,3,2,10,20,09,098,,35,14,216,,36,57,134,,38,48,154,*61
$GBGSV,3,3,10,39,70,001,,46,36,057,,,,,,,,,*63
$GPGSV,4,1,13,10,62,342,33,22,25,270,42,32,45,293,44,12,21,103,*70
$GPGSV,4,2,13,15,07,074,,18,29,180,,23,69,077,,25,20,141,*79
$GPGSV,4,3,13,31,11,213,,194,30,117,,196,58,104,,199,46,140,*46
$GPGSV,4,4,13,24,36,045,,,,,,,,,,,,,*49
$GPGSA,A,3,10,22,32,,,,,,,,,,7.82,5.96,5.06*06
$GBGSA,A,3,22,21,44,,,,,,,,,,7.82,5.96,5.06*17
$GNRMC,071353.00,A,3032.4977,N,10403.1050,E,0.70,127.68,270922,,,A*4F
$GNVTG,127.68,T,,M,0.709,N,1.313,K*4A
$GNGGA,071353.00,3032.5041,N,10403.1002,E,1,6,5.95,512.903,M,-35.79,M,,*60
$GBGSV,3,1,10,22,50,330,38,21,07,296,41,44,18,270,43,19,50,065,*6F
$GBGSV,3,2,10,20,09,098,,35,14,216,,36,57,134,,38,48,154,*61
$GBGSV,3,3,10,39,70,001,,46,36,057,,,,,,,,,*63
$GPGSV,4,1,13,10,62,342,33,22,25,270,43,32,45,293,44,12,21,103,*71
$GPGSV,4,2,13,15,07,074,,18,29,180,,23,69,077,,25,20,141,*79
$GPGSV,4,3,13,31,11,213,,194,30,117,,196,58,104,,199,46,140,*46
$GPGSV,4,4,13,24,36,045,,,,,,,,,,,,,*49
$GPGSA,A,3,10,22,32,,,,,,,,,,7.81,5.95,5.06*06
$GBGSA,A,3,22,21,44,,,,,,,,,,7.81,5.95,5.06*17
$GNRMC,071354.00,A,3032.4980,N,10403.1053,E,0.63,284.39,270922,,,A*4F
$GNVTG,284.39,T,,M,0.639,N,1.183,K*4D
$GNGGA,071354.00,3032.5040,N,10403.1004,E,1,6,5.95,512.587,M,-35.79,M,,*60
$GBGSV,3,1,10,22,50,330,38,21,07,296,42,44,18,270,44,19,50,065,*6B
$GBGSV,3,2,10,20,09,098,,35,14,216,,36,57,134,,38,48,154,*61
$GBGSV,3,3,10,39,70,001,,46,36,057,,,,,,,,,*63
$GPGSV,4,1,13,10,62,342,33,22,25,270,45,32,45,293,45,12,21,103,*76
$GPGSV,4,2,13,15,07,074,,18,29,180,,23,69,077,,25,20,141,*79
$GPGSV,4,3,13,31,11,213,,194,30,117,,196,58,104,,199,46,140,*46
$GPGSV,4,4,13,24,36,045,,,,,,,,,,,,,*49
$GPGSA,A,3,10,22,32,,,,,,,,,,7.81,5.95,5.05*05
$GBGSA,A,3,22,21,44,,,,,,,,,,7.81,5.95,5.05*14
$GNRMC,071355.00,A,3032.4987,N,10403.1051,E,0.13,121.84,270922,,,A*46
$GNVTG,121.84,T,,M,0.133,N,0.246,K*41
$GNGGA,071355.00,3032.5038,N,10403.1005,E,1,6,5.95,512.550,M,-35.79,M,,*65
$GBGSV,3,1,10,22,50,330,38,21,07,296,42,44,18,270,44,19,50,065,*6B
$GBGSV,3,2,10,20,09,098,,35,14,216,,36,57,134,,38,48,154,*61
$GBGSV,3,3,10,39,70,001,,46,36,057,,,,,,,,,*63
$GPGSV,4,1,13,10,62,342,33,22,25,270,45,32,45,293,46,12,21,103,*75
$GPGSV,4,2,13,15,07,074,,18,29,180,,23,69,077,,25,20,141,*79
$GPGSV,4,3,13,31,11,213,,194,30,117,,196,58,104,,199,46,140,*46
$GPGSV,4,4,13,24,36,045,,,,,,,,,,,,,*49
$GPGSA,A,3,10,22,32,,,,,,,,,,7.81,5.95,5.05*05
$GBGSA,A,3,22,21,44,,,,,,,,,,7.81,5.95,5.05*14
$GNRMC,071356.00,A,3032.4989,N,10403.1054,E,0.61,279.12,270922,,,A*4A
$GNVTG,279.12,T,,M,0.618,N,1.146,K*4C
$GNGGA,071356.00,3032.5037,N,10403.1006,E,1,6,5.95,512.408,M,-35.79,M,,*66
$GBGSV,3,1,10,22,50,330,37,21,07,296,42,44,18,270,44,19,50,065,*64
$GBGSV,3,2,10,20,09,098,,35,14,216,,36,57,134,,38,48,154,*61
$GBGSV,3,3,10,39,70,001,,46,36,057,,,,,,,,,*63
$GPGSV,4,1,13,10,62,342,33,22,25,270,45,32,45,293,46,12,21,103,*75
$GPGSV,4,2,13,15,07,074,,18,29,180,,23,69,077,,25,20,141,*79
$GPGSV,4,3,13,31,11,213,,194,30,117,,196,58,104,,199,46,140,*46
$GPGSV,4,4,13,24,36,045,,,,,,,,,,,,,*49
$GPGSA,A,3,10,22,32,,,,,,,,,,7.81,5.95,5.05*05
$GBGSA,A,3,22,21,44,,,,,,,,,,7.81,5.95,5.05*14
$GNRMC,071357.00,A,3032.4983,N,10403.1076,E,0.36,246.32,270922,,,A*4D
$GNVTG,246.32,T,,M,0.369,N,0.683,K*4E
$GNGGA,071357.00,3032.5036,N,10403.1007,E,1,6,5.95,512.275,M,-35.79,M,,*6B
$GBGSV,3,1,10,22,50,330,38,21,07,296,42,44,18,270,44,19,50,065,*6B
$GBGSV,3,2,10,20,09,098,,35,14,216,,36,57,134,,38,48,154,*61
$GBGSV,3,3,10,39,70,001,,46,36,057,,,,,,,,,*63
$GPGSV,4,1,13,10,62,342,33,22,25,270,46,32,45,293,47,12,21,103,*77
$GPGSV,4,2,13,15,07,074,,18,29,180,,23,69,077,,25,20,141,*79
$GPGSV,4,3,13,31,11,213,,194,30,117,,196,58,104,,199,46,140,*46
$GPGSV,4,4,13,24,36,045,,,,,,,,,,,,,*49
$GPGSA,A,3,10,22,32,,,,,,,,,,7.80,5.95,5.05*04
$GBGSA,A,3,22,21,44,,,,,,,,,,7.80,5.95,5.05*15
$GNRMC,071358.00,A,3032.4972,N,10403.1112,E,0.47,136.04,270922,,,A*48
$GNVTG,136.04,T,,M,0.472,N,0.875,K*45
$GNGGA,071358.00,3032.5035,N,10403.1009,E,1,6,5.95,512.051,M,-35.79,M,,*6D
$GBGSV,3,1,10,22,50,330,38,21,07,296,42,44,18,270,43,19,50,065,*6C
$GBGSV,3,2,10,20,09,098,,35,14,216,,36,57,134,,38,48,154,*61
$GBGSV,3,3,10,39,70,001,,46,36,057,,,,,,,,,*63
$GPGSV,4,1,13,10,62,342,32,22,25,270,46,32,45,293,46,12,21,103,*77
$GPGSV,4,2,13,15,07,074,,18,29,180,,23,69,077,,25,20,141,*79
$GPGSV,4,3,13,31,11,213,,194,30,117,,196,58,104,,199,46,140,*46
$GPGSV,4,4,13,24,36,045,,,,,,,,,,,,,*49
$GPGSA,A,3,10,22,32,,,,,,,,,,7.80,5.95,5.05*04
$GBGSA,A,3,22,21,44,,,,,,,,,,7.80,5.95,5.05*15
$GNRMC,071359.00,A,3032.4961,N,10403.1162,E,0.19,163.28,270922,,,A*49
$GNVTG,163.28,T,,M,0.192,N,0.356,K*4A
$GNGGA,071359.00,3032.5033,N,10403.1012,E,1,6,5.94,511.748,M,-35.79,M,,*6D
$GBGSV,3,1,10,22,50,330,38,21,07,296,42,44,18,270,43,19,50,065,*6C
$GBGSV,3,2,10,20,09,098,,35,14,216,,36,57,134,,38,48,154,*61
$GBGSV,3,3,10,39,70,001,,46,36,057,,,,,,,,,*63
$GPGSV,4,1,13,10,62,342,32,22,25,270,46,32,45,293,48,12,21,103,*79
$GPGSV,4,2,13,15,07,074,,18,29,180,,23,69,077,,25,20,141,*79
$GPGSV,4,3,13,31,11,213,,194,30,117,,196,58,104,,199,46,140,*46
$GPGSV,4,4,13,24,36,045,,,,,,,,,,,,,*49
$GPGSA,A,3,10,22,32,,,,,,,,,,7.80,5.94,5.05*05
$GBGSA,A,3,22,21,44,,,,,,,,,,7.80,5.94,5.05*14
$GNRMC,071400.00,A,3032.4942,N,10403.1218,E,1.34,130.72,270922,,,A*4A
$GNVTG,130.72,T,,M,1.341,N,2.485,K*45
$GNGGA,071400.00,3032.5031,N,10403.1017,E,1,6,5.94,511.235,M,-35.79,M,,*6E
$GBGSV,3,1,10,22,50,330,39,21,07,296,42,44,18,269,42,19,50,065,*64
$GBGSV,3,2,10,20,09,098,,35,14,216,,36,57,134,,38,48,154,*61
$GBGSV,3,3,10,39,70,001,,46,36,057,,,,,,,,,*63
$GPGSV,4,1,13,10,62,342,31,22,25,270,47,32,45,293,47,12,21,103,*74
$GPGSV,4,2,13,15,07,074,,18,29,180,,23,69,077,,25,20,141,*79
$GPGSV,4,3,13,31,11,213,,194,30,117,,196,58,104,,199,46,140,*46
$GPGSV,4,4,13,24,36,045,,,,,,,,,,,,,*49
$GPGSA,A,3,10,22,32,,,,,,,,,,7.80,5.94,5.04*04
$GBGSA,A,3,22,21,44,,,,,,,,,,7.80,5.94,5.04*15
$GNRMC,071401.00,A,3032.4936,N,10403.1234,E,0.32,252.81,270922,,,A*4A
$GNVTG,252.81,T,,M,0.328,N,0.608,K*45
$GNGGA,071401.00,3032.5029,N,10403.1022,E,1,6,5.94,510.762,M,-35.79,M,,*66
$GBGSV,3,1,10,22,50,330,38,21,07,296,42,44,18,269,41,19,50,065,*66
$GBGSV,3,2,10,20,09,098,,35,14,216,,36,57,134,,38,48,154,*61
$GBGSV,3,3,10,39,70,001,,46,36,057,,,,,,,,,*63
$GPGSV,4,1,13,10,62,342,31,22,25,270,46,32,45,293,47,12,21,103,*75
$GPGSV,4,2,13,15,07,074,,18,29,180,,23,69,077,,25,20,141,*79
$GPGSV,4,3,13,31,11,213,,194,30,117,,196,58,104,,199,46,140,*46
$GPGSV,4,4,13,24,36,045,,,,,,,,,,,,,*49
$GPGSA,A,3,10,22,32,,,,,,,,,,7.79,5.94,5.04*02
$GBGSA,A,3,22,21,44,,,,,,,,,,7.79,5.94,5.04*13
$GNRMC,071402.00,A,3032.4942,N,10403.1229,E,0.43,151.42,270922,,,A*4F
$GNVTG,151.42,T,,M,0.432,N,0.801,K*41
$GNGGA,071402.00,3032.5027,N,10403.1026,E,1,6,5.94,510.244,M,-35.79,M,,*6E
$GBGSV,3,1,10,22,50,330,38,21,07,296,43,44,18,269,41,19,50,065,*67
$GBGSV,3,2,10,20,09,098,,35,14,216,,36,57,134,,38,48,154,*61
$GBGSV,3,3,10,39,70,001,,46,36,057,,,,,,,,,*63
$GPGSV,4,1,13,10,62,342,32,22,25,270,46,32,45,293,47,12,21,103,*76
$GPGSV,4,2,13,15,07,074,,18,29,180,,23,69,077,,25,20,141,*79
$GPGSV,4,3,13,31,11,213,,194,30,117,,196,58,104,,199,46,140,*46
$GPGSV,4,4,13,24,36,045,,,,,,,,,,,,,*49
$GPGSA,A,3,10,22,32,,,,,,,,,,7.79,5.94,5.04*02
$GBGSA,A,3,22,21,44,,,,,,,,,,7.79,5.94,5.04*13
$GNRMC,071403.00,A,3032.4951,N,10403.1205,E,0.56,128.99,270922,,,A*4E
$GNVTG,128.99,T,,M,0.563,N,1.044,K*44
$GNGGA,071403.00,3032.5025,N,10403.1030,E,1,6,5.94,509.780,M,-35.79,M,,*6F
$GBGSV,3,1,10,22,50,330,38,21,07,296,43,44,18,269,40,19,50,065,*66
$GBGSV,3,2,10,20,09,098,,35,14,216,,36,57,134,,38,48,154,*61
$GBGSV,3,3,10,39,70,001,,46,36,057,,,,,,,,,*63
$GPGSV,4,1,13,10,62,342,32,22,25,270,46,32,45,293,46,12,21,103,*77
$GPGSV,4,2,13,15,07,074,,18,29,180,,23,69,077,,25,20,141,*79
$GPGSV,4,3,13,31,11,213,,194,30,117,,196,58,104,,199,46,140,*46
$GPGSV,4,4,13,24,36,045,,,,,,,,,,,,,*49
$GPGSA,A,3,10,22,32,,,,,,,,,,7.79,5.94,5.04*02
$GBGSA,A,3,22,21,44,,,,,,,,,,7.79,5.94,5.04*13
$GNRMC,071404.00,A,3032.4945,N,10403.1205,E,0.14,142.09,270922,,,A*4F
$GNVTG,142.09,T,,M,0.142,N,0.264,K*47
$GNGGA,071404.00,3032.5024,N,10403.1033,E,1,6,5.94,509.377,M,-35.79,M,,*66
$GBGSV,3,1,10,22,50,330,38,21,07,296,42,44,18,269,39,19,50,065,*69
$GBGSV,3,2,10,20,09,098,,35,14,216,,36,57,134,,38,48,154,*61
$GBGSV,3,3,10,39,70,001,,46,36,057,,,,,,,,,*63
$GPGSV,4,1,13,10,62,342,33,22,25,270,46,32,45,293,46,12,21,103,*76
$GPGSV,4,2,13,15,07,074,,18,29,180,,23,69,077,,25,20,141,*79
$GPGSV,4,3,13,31,11,213,,194,30,117,,196,58,104,,199,46,140,*46
$GPGSV,4,4,13,24,36,045,,,,,,,,,,,,,*49
$GPGSA,A,3,10,22,32,,,,,,,,,,7.79,5.94,5.04*02
$GBGSA,A,3,22,21,44,,,,,,,,,,7.79,5.94,5.04*13
$GNRMC,071405.00,A,3032.4947,N,10403.1189,E,0.85,141.01,270922,,,A*48
$GNVTG,141.01,T,,M,0.859,N,1.592,K*40
$GNGGA,071405.00,3032.5023,N,10403.1037,E,1,6,5.94,508.892,M,-35.79,M,,*65
$GBGSV,3,1,10,22,50,330,38,21,07,296,41,44,18,269,38,19,50,065,*6B
$GBGSV,3,2,10,20,09,098,,35,14,216,,36,57,134,,38,48,154,*61
$GBGSV,3,3,10,39,70,001,,46,36,057,,,,,,,,,*63
$GPGSV,4,1,13,10,62,342,33,22,25,270,46,32,45,293,46,12,21,103,*76
$GPGSV,4,2,13,15,07,074,,18,29,180,,23,69,077,,25,20,141,*79
$GPGSV,4,3,13,31,11,213,,194,30,117,,196,58,104,,199,46,140,*46
$GPGSV,4,4,13,24,36,045,,,,,,,,,,,,,*49
$GPGSA,A,3,10,22,32,,,,,,,,,,7.79,5.94,5.04*02
$GBGSA,A,3,22,21,44,,,,,,,,,,7.79,5.94,5.04*13
$GNRMC,071406.00,A,3032.4949,N,10403.1174,E,0.30,147.77,270922,,,A*4E
$GNVTG,147.77,T,,M,0.308,N,0.571,K*44
$GNGGA,071406.00,3032.4971,N,10403.1132,E,1,6,5.93,498.190,M,-35.79,M,,*69
$GBGSV,3,1,10,22,50,330,38,21,07,296,42,44,18,269,38,19,50,065,*68
$GBGSV,3,2,10,20,09,098,,35,14,216,,36,57,134,,38,48,154,*61
$GBGSV,3,3,10,39,70,001,,46,36,057,,,,,,,,,*63
$GPGSV,4,1,13,10,62,342,33,22,25,270,46,32,45,293,46,12,21,103,*76
$GPGSV,4,2,13,15,07,074,,18,29,180,,23,69,077,,25,20,141,*79
$GPGSV,4,3,13,31,11,213,,194,30,117,,196,58,104,,199,46,140,*46
$GPGSV,4,4,13,24,36,045,,,,,,,,,,,,,*49
$GPGSA,A,3,10,22,32,,,,,,,,,,7.78,5.93,5.03*03
$GBGSA,A,3,22,21,44,,,,,,,,,,7.78,5.93,5.03*12
$GNRMC,071407.00,A,3032.4948,N,10403.1159,E,1.01,130.11,270922,,,A*42
$GNVTG,130.11,T,,M,1.013,N,1.876,K*47
$GNGGA,071407.00,3032.4965,N,10403.1131,E,1,6,5.93,497.220,M,-35.79,M,,*69
$GBGSV,3,1,10,22,50,330,38,21,07,296,41,44,18,269,38,19,50,065,*6B
$GBGSV,3,2,10,20,09,098,,35,14,216,,36,57,134,,38,48,154,*61
$GBGSV,3,3,10,39,70,001,,46,36,057,,,,,,,,,*63
$GPGSV,4,1,13,10,62,342,33,22,25,270,47,32,45,293,46,12,21,103,*77
$GPGSV,4,2,13,15,07,074,,18,29,180,,23,69,077,,25,20,141,*79
$GPGSV,4,3,13,31,11,213,,194,30,117,,196,58,104,,199,46,140,*46
$GPGSV,4,4,13,24,36,045,,,,,,,,,,,,,*49
$GPGSA,A,3,10,22,32,,,,,,,,,,7.78,5.93,5.03*03
$GBGSA,A,3,22,21,44,,,,,,,,,,7.78,5.93,5.03*12
$GNRMC,071408.00,A,3032.4939,N,10403.1161,E,1.28,130.71,270922,,,A*4D
$GNVTG,130.71,T,,M,1.289,N,2.388,K*49
$GNGGA,071408.00,3032.4960,N,10403.1130,E,1,6,5.93,496.412,M,-35.79,M,,*64
$GBGSV,3,1,10,22,50,330,38,21,07,296,42,44,18,269,39,19,50,065,*69
$GBGSV,3,2,10,20,09,098,,35,14,216,,36,57,134,,38,48,154,*61
$GBGSV,3,3,10,39,70,001,,46,36,057,,,,,,,,,*63
$GPGSV,4,1,13,10,62,342,33,22,25,270,47,32,45,293,46,12,21,103,*77
$GPGSV,4,2,13,15,07,074,,18,29,180,,23,69,077,,25,20,141,*79
$GPGSV,4,3,13,31,11,213,,194,30,117,,196,58,104,,199,46,140,*46
$GPGSV,4,4,13,24,36,045,,,,,,,,,,,,,*49
$GPGSA,A,3,10,22,32,,,,,,,,,,7.78,5.93,5.03*03
$GBGSA,A,3,22,21,44,,,,,,,,,,7.78,5.93,5.03*12
$GNRMC,071409.00,A,3032.4948,N,10403.1157,E,0.36,150.41,270922,,,A*44
$GNVTG,150.41,T,,M,0.365,N,0.676,K*48
$GNGGA,071409.00,3032.4956,N,10403.1131,E,1,6,5.93,495.706,M,-35.79,M,,*64
$GBGSV,3,1,10,22,50,330,39,21,07,297,42,44,18,269,39,19,50,065,*69
$GBGSV,3,2,10,20,09,098,,35,14,216,,36,57,134,,38,48,154,*61
$GBGSV,3,3,10,39,70,001,,46,36,057,,,,,,,,,*63
$GPGSV,4,1,13,10,62,342,33,22,25,270,47,32,45,293,46,12,21,103,*77
$GPGSV,4,2,13,15,07,074,,18,29,180,,23,69,077,,25,20,141,*79
$GPGSV,4,3,13,31,11,213,,194,30,117,,196,58,104,,199,46,140,*46
$GPGSV,4,4,13,24,36,045,,,,,,,,,,,,,*49
$GPGSA,A,3,10,22,32,,,,,,,,,,7.78,5.93,5.03*03
$GBGSA,A,3,22,21,44,,,,,,,,,,7.78,5.93,5.03*12
$GNRMC,071410.00,A,3032.4960,N,10403.1151,E,0.20,218.20,270922,,,A*4F
$GNVTG,218.20,T,,M,0.202,N,0.375,K*46
$GNGGA,071410.00,3032.4955,N,10403.1132,E,1,6,5.93,495.028,M,-35.79,M,,*67
$GBGSV,3,1,10,22,50,330,39,21,07,297,42,44,18,269,41,19,50,065,*66
$GBGSV,3,2,10,20,09,098,,35,14,216,,36,57,134,,38,48,154,*61
$GBGSV,3,3,10,39,70,001,,46,36,057,,,,,,,,,*63
$GPGSV,4,1,13,10,62,342,33,22,25,270,47,32,45,293,46,12,21,103,*77
$GPGSV,4,2,13,15,07,074,,18,29,180,,23,69,077,,25,20,141,*79
$GPGSV,4,3,13,31,11,213,,194,30,117,,196,58,104,,199,46,140,*46
$GPGSV,4,4,13,24,36,045,,,,,,,,,,,,,*49
$GPGSA,A,3,10,22,32,,,,,,,,,,7.77,5.93,5.03*0C
$GBGSA,A,3,22,21,44,,,,,,,,,,7.77,5.93,5.03*1D
$GNRMC,071411.00,A,3032.4966,N,10403.1151,E,0.73,134.29,270922,,,A*4A
$GNVTG,134.29,T,,M,0.732,N,1.355,K*47
$GNGGA,071411.00,3032.4956,N,10403.1133,E,1,6,5.93,494.416,M,-35.79,M,,*6C
$GBGSV,3,1,10,22,50,330,39,21,07,297,42,44,18,269,41,19,50,065,*66
$GBGSV,3,2,10,20,09,098,,35,14,216,,36,57,134,,38,48,154,*61
$GBGSV,3,3,10,39,70,001,,46,36,057,,,,,,,,,*63
$GPGSV,4,1,13,10,62,342,33,22,25,270,47,32,45,293,45,12,21,103,*74
$GPGSV,4,2,13,15,07,074,,18,29,180,,23,69,077,,25,20,141,*79
$GPGSV,4,3,13,31,11,213,,194,30,117,,196,58,104,,199,46,140,*46
$GPGSV,4,4,13,24,36,045,,,,,,,,,,,,,*49
$GPGSA,A,3,10,22,32,,,,,,,,,,7.77,5.93,5.02*0D
$GBGSA,A,3,22,21,44,,,,,,,,,,7.77,5.93,5.02*1C
$GNRMC,071412.00,A,3032.4964,N,10403.1156,E,0.26,191.16,270922,,,A*4F
$GNVTG,191.16,T,,M,0.261,N,0.484,K*4D
$GNGGA,071412.00,3032.4958,N,10403.1136,E,1,6,5.92,493.998,M,-35.79,M,,*69
$GBGSV,3,1,10,22,50,330,39,21,07,297,42,44,18,269,42,19,50,065,*65
$GBGSV,3,2,10,20,09,098,,35,14,216,,36,57,134,,38,48,154,*61
$GBGSV,3,3,10,39,70,001,,46,36,057,,,,,,,,,*63
$GPGSV,4,1,13,10,62,342,33,22,25,270,46,32,45,294,46,12,21,103,*71
$GPGSV,4,2,13,15,07,074,,18,29,180,,23,69,077,,25,20,141,*79
$GPGSV,4,3,13,31,11,213,,194,30,117,,196,58,104,,199,46,140,*46
$GPGSV,4,4,13,24,36,045,,,,,,,,,,,,,*49
$GPGSA,A,3,10,22,32,,,,,,,,,,7.77,5.92,5.02*0C
$GBGSA,A,3,22,21,44,,,,,,,,,,7.77,5.92,5.02*1D
$GNRMC,071413.00,A,3032.4962,N,10403.1164,E,0.42,155.39,270922,,,A*4E
$GNVTG,155.39,T,,M,0.423,N,0.785,K*4A
$GNGGA,071413.00,3032.4959,N,10403.1140,E,1,6,5.92,493.876,M,-35.79,M,,*69
$GBGSV,3,1,10,22,50,330,39,21,07,297,42,44,18,269,42,19,50,065,*65
$GBGSV,3,2,10,20,09,098,,35,14,216,,36,57,134,,38,48,154,*61
$GBGSV,3,3,10,39,70,001,,46,36,057,,,,,,,,,*63
$GPGSV,4,1,13,10,62,342,32,22,25,270,46,32,45,294,45,12,21,103,*73
$GPGSV,4,2,13,15,07,074,,18,29,180,,23,69,077,,25,20,141,*79
$GPGSV,4,3,13,31,11,213,,194,30,117,,196,58,104,,199,46,140,*46
$GPGSV,4,4,13,24,36,045,,,,,,,,,,,,,*49
$GPGSA,A,3,10,22,32,,,,,,,,,,7.77,5.92,5.02*0C
$GBGSA,A,3,22,21,44,,,,,,,,,,7.77,5.92,5.02*1D
$GNRMC,071414.00,A,3032.4951,N,10403.1189,E,0.38,293.70,270922,,,A*43
$GNVTG,293.70,T,,M,0.384,N,0.711,K*49
$GNGGA,071414.00,3032.4960,N,10403.1146,E,1,6,5.92,493.972,M,-35.79,M,,*67
$GBGSV,3,1,10,22,50,330,39,21,07,297,41,44,18,269,43,19,50,065,*67
$GBGSV,3,2,10,20,09,098,,35,14,216,,36,57,134,,38,48,154,*61
$GBGSV,3,3,10,39,70,001,,46,36,057,,,,,,,,,*63
$GPGSV,4,1,13,10,62,342,31,22,25,270,46,32,45,294,44,12,21,103,*71
$GPGSV,4,2,13,15,07,074,,18,29,180,,23,69,077,,25,20,141,*79
$GPGSV,4,3,13,31,11,213,,194,30,117,,196,58,104,,199,46,140,*46
$GPGSV,4,4,13,24,36,045,,,,,,,,,,,,,*49
$GPGSA,A,3,10,22,32,,,,,,,,,,7.76,5.92,5.02*0D
$GBGSA,A,3,22,21,44,,,,,,,,,,7.76,5.92,5.02*1C
$GNRMC,071415.00,A,3032.4940,N,10403.1205,E,0.78,123.46,270922,,,A*4C
$GNVTG,123.46,T,,M,0.786,N,1.457,K*42
$GNGGA,071415.00,3032.4959,N,10403.1154,E,1,6,5.92,494.166,M,-35.79,M,,*65
$GBGSV,3,1,10,22,50,330,39,21,07,297,41,44,18,269,44,19,50,065,*60
$GBGSV,3,2,10,20,09,098,,35,14,216,,36,57,134,,38,48,154,*61
$GBGSV,3,3,10,39,70,001,,46,36,057,,,,,,,,,*63
$GPGSV,4,1,13,10,62,342,31,22,25,270,44,32,45,294,44,12,21,103,*73
$GPGSV,4,2,13,15,07,074,,18,29,180,,23,69,077,,25,20,141,*79
$GPGSV,4,3,13,31,11,213,,194,30,117,,196,58,104,,199,46,140,*46
$GPGSV,4,4,13,24,36,045,,,,,,,,,,,,,*49
$GPGSA,A,3,10,22,32,,,,,,,,,,7.76,5.92,5.02*0D
$GBGSA,A,3,22,21,44,,,,,,,,,,7.76,5.92,5.02*1C
$GNRMC,071416.00,A,3032.4941,N,10403.1222,E,1.29,125.22,270922,,,A*4A
$GNVTG,125.22,T,,M,1.292,N,2.393,K*4B
$GNGGA,071416.00,3032.4951,N,10403.1173,E,1,6,5.92,490.554,M,-35.79,M,,*6A
$GBGSV,3,1,10,22,50,330,39,21,07,297,41,44,18,269,44,19,50,065,*60
$GBGSV,3,2,10,20,09,098,,35,14,216,,36,57,134,,38,48,154,*61
$GBGSV,3,3,10,39,70,001,,46,36,057,,,,,,,,,*63
$GPGSV,4,1,13,10,62,342,31,22,25,270,44,32,45,294,45,12,21,103,*72
$GPGSV,4,2,13,15,07,074,,18,29,180,,23,69,077,,25,20,141,*79
$GPGSV,4,3,13,31,11,213,,194,30,117,,196,58,104,,199,46,140,*46
$GPGSV,4,4,13,24,36,045,,,,,,,,,,,,,*49
$GPGSA,A,3,10,22,32,,,,,,,,,,7.76,5.92,5.02*0D
$GBGSA,A,3,22,21,44,,,,,,,,,,7.76,5.92,5.02*1C
$GNRMC,071417.00,A,3032.4941,N,10403.1226,E,0.27,246.56,270922,,,A*45
$GNVTG,246.56,T,,M,0.272,N,0.504,K*4B
$GNGGA,071417.00,3032.4958,N,10403.1172,E,1,6,5.92,493.903,M,-35.79,M,,*6E
$GBGSV,3,1,10,22,50,330,39,21,07,297,42,44,18,269,44,19,50,065,*63
$GBGSV,3,2,10,20,09,098,,35,14,216,,36,57,134,,38,48,154,*61
$GBGSV,3,3,10,39,70,001,,46,36,057,,,,,,,,,*63
$GPGSV,4,1,13,10,62,342,31,22,25,270,44,32,45,294,46,12,21,103,*71
$GPGSV,4,2,13,15,07,074,,18,29,180,,23,69,077,,25,20,141,*79
$GPGSV,4,3,13,31,11,213,,194,30,117,,196,58,104,,199,46,140,*46
$GPGSV,4,4,13,24,36,045,,,,,,,,,,,,,*49
$GPGSA,A,3,10,22,32,,,,,,,,,,7.76,5.92,5.01*0E
$GBGSA,A,3,22,21,44,,,,,,,,,,7.76,5.92,5.01*1F
$GNRMC,071418.00,A,3032.4937,N,10403.1224,E,0.74,297.57,270922,,,A*42
$GNVTG,297.57,T,,M,0.741,N,1.373,K*44
$GNGGA,071418.00,3032.4956,N,10403.1178,E,1,6,5.91,493.260,M,-35.79,M,,*68
$GBGSV,3,1,10,22,50,330,39,21,07,297,42,44,18,269,44,19,50,065,*63
$GBGSV,3,2,10,20,09,098,,35,14,216,,36,57,134,,38,48,154,*61
$GBGSV,3,3,10,39,70,001,,46,36,057,,,,,,,,,*63
$GPGSV,4,1,13,10,62,342,32,22,25,270,43,32,45,294,45,12,21,103,*76
$GPGSV,4,2,13,15,07,074,,18,29,180,,23,69,077,,25,20,141,*79
$GPGSV,4,3,13,31,11,213,,194,30,117,,196,58,104,,199,46,140,*46
$GPGSV,4,4,13,24,36,045,,,,,,,,,,,,,*49
$GPGSA,A,3,10,22,32,,,,,,,,,,7.76,5.91,5.01*0D
$GBGSA,A,3,22,21,44,,,,,,,,,,7.76,5.91,5.01*1C
$GNRMC,071419.00,A,3032.4946,N,10403.1210,E,0.25,201.03,270922,,,A*48
$GNVTG,201.03,T,,M,0.257,N,0.476,K*4B
$GNGGA,071419.00,3032.4955,N,10403.1182,E,1,6,5.91,492.428,M,-35.79,M,,*64
$GBGSV,3,1,10,22,50,330,40,21,07,297,43,44,18,269,44,19,50,065,*6C
$GBGSV,3,2,10,20,09,098,,35,14,216,,36,57,134,,38,48,154,*61
$GBGSV,3,3,10,39,70,001,,46,36,057,,,,,,,,,*63
$GPGSV,4,1,13,10,62,342,32,22,25,270,43,32,45,294,46,12,21,103,*75
$GPGSV,4,2,13,15,07,074,,18,29,180,,23,69,077,,25,20,141,*79
$GPGSV,4,3,13,31,11,213,,194,30,117,,196,58,104,,199,46,140,*46
$GPGSV,4,4,13,24,36,045,,,,,,,,,,,,,*49
$GPGSA,A,3,10,22,32,,,,,,,,,,7.75,5.91,5.01*0E
$GBGSA,A,3,22,21,44,,,,,,,,,,7.75,5.91,5.01*1F
$GNRMC,071420.00,A,3032.4959,N,10403.1185,E,0.53,126.95,270922,,,A*4B
$GNVTG,126.95,T,,M,0.538,N,0.997,K*4E
$GNGGA,071420.00,3032.4955,N,10403.1182,E,1,6,5.91,491.659,M,-35.79,M,,*69
$GBGSV,3,1,10,22,50,330,39,21,07,297,42,44,18,269,45,19,50,065,*62
$GBGSV,3,2,10,20,09,098,,35,14,216,,36,57,134,,38,48,154,*61
$GBGSV,3,3,10,39,70,001,,46,36,057,,,,,,,,,*63
$GPGSV,4,1,13,10,62,342,32,22,25,270,43,32,45,294,45,12,21,103,*76
$GPGSV,4,2,13,15,07,074,,18,29,180,,23,69,077,,25,20,141,*79
$GPGSV,4,3,13,31,11,213,,194,30,117,,196,58,104,,199,46,140,*46
$GPGSV,4,4,13,24,36,045,,,,,,,,,,,,,*49
$GPGSA,A,3,10,22,32,,,,,,,,,,7.75,5.91,5.01*0E
$GBGSA,A,3,22,21,44,,,,,,,,,,7.75,5.91,5.01*1F
$GNRMC,071421.00,A,3032.4972,N,10403.1150,E,0.61,152.29,270922,,,A*4E
$GNVTG,152.29,T,,M,0.611,N,1.131,K*47
$GNGGA,071421.00,3032.4954,N,10403.1179,E,1,6,5.91,491.055,M,-35.79,M,,*67
$GBGSV,3,1,10,22,50,330,39,21,07,297,42,44,18,269,45,19,50,065,*62
$GBGSV,3,2,10,20,09,098,,35,14,216,,36,57,134,,38,48,154,*61
$GBGSV,3,3,10,39,70,001,,46,36,057,,,,,,,,,*63
$GPGSV,4,1,13,10,62,342,32,22,25,270,44,32,45,294,45,12,21,103,*71
$GPGSV,4,2,13,15,07,074,,18,29,180,,23,69,077,,25,20,141,*79
$GPGSV,4,3,13,31,11,213,,194,30,117,,196,58,104,,199,46,140,*46
$GPGSV,4,4,13,24,36,045,,,,,,,,,,,,,*49
$GPGSA,A,3,10,22,32,,,,,,,,,,7.75,5.91,5.01*0E
$GBGSA,A,3,22,21,44,,,,,,,,,,7.75,5.91,5.01*1F
$GNRMC,071422.00,A,3032.4980,N,10403.1119,E,0.47,280.91,270922,,,A*46
$GNVTG,280.91,T,,M,0.472,N,0.875,K*47
$GNGGA,071422.00,3032.4954,N,10403.1172,E,1,6,5.91,490.684,M,-35.79,M,,*64
$GBGSV,3,1,10,22,50,330,39,21,07,297,41,44,18,269,43,19,50,065,*67
$GBGSV,3,2,10,20,09,098,,35,14,216,,36,57,134,,38,48,154,*61
$GBGSV,3,3,10,39,70,001,,46,36,057,,,,,,,,,*63
$GPGSV,4,1,13,10,62,342,33,22,25,270,44,32,45,294,45,12,21,103,*70
$GPGSV,4,2,13,15,07,074,,18,29,180,,23,69,077,,25,20,141,*79
$GPGSV,4,3,13,31,11,213,,194,30,117,,196,58,104,,199,46,140,*46
$GPGSV,4,4,13,24,36,045,,,,,,,,,,,,,*49
$GPGSA,A,3,10,22,32,,,,,,,,,,7.75,5.91,5.01*0E
$GBGSA,A,3,22,21,44,,,,,,,,,,7.75,5.91,5.01*1F
$GNRMC,071423.00,A,3032.4991,N,10403.1089,E,0.12,214.57,270922,,,A*48
$GNVTG,214.57,T,,M,0.120,N,0.222,K*4A
$GNGGA,071423.00,3032.4954,N,10403.1162,E,1,6,5.91,490.460,M,-35.79,M,,*6C
$GBGSV,3,1,10,22,50,330,39,21,07,297,42,44,18,269,44,19,50,065,*63
$GBGSV,3,2,10,20,09,098,,35,14,216,,36,57,134,,38,48,154,*61
$GBGSV,3,3,10,39,70,001,,46,36,057,,,,,,,,,*63
$GPGSV,4,1,13,10,62,342,33,22,25,270,44,32,45,294,45,12,21,103,*70
$GPGSV,4,2,13,15,07,074,,18,29,180,,23,69,077,,25,20,141,*79
$GPGSV,4,3,13,31,11,213,,194,30,117,,196,58,104,,199,46,140,*46
$GPGSV,4,4,13,24,36,045,,,,,,,,,,,,,*49
$GPGSA,A,3,10,22,32,,,,,,,,,,7.74,5.91,5.00*0E
$GBGSA,A,3,22,21,44,,,,,,,,,,7.74,5.91,5.00*1F
$GNRMC,071424.00,A,3032.5000,N,10403.1067,E,0.38,142.75,270922,,,A*47
$GNVTG,142.75,T,,M,0.382,N,0.708,K*4D
$GNGGA,071424.00,3032.4956,N,10403.1152,E,1,6,5.91,490.662,M,-35.79,M,,*6A
$GBGSV,3,1,10,22,50,330,39,21,07,297,41,44,18,269,43,19,50,065,*67
$GBGSV,3,2,10,20,09,098,,35,14,216,,36,57,134,,38,48,154,*61
$GBGSV,3,3,10,39,70,001,,46,36,057,,,,,,,,,*63
$GPGSV,4,1,13,10,62,342,32,22,25,270,43,32,45,294,45,12,21,103,*76
$GPGSV,4,2,13,15,07,074,,18,29,180,,23,69,077,,25,20,141,*79
$GPGSV,4,3,13,31,11,213,,194,30,117,,196,58,104,,199,46,140,*46
$GPGSV,4,4,13,24,36,045,,,,,,,,,,,,,*49
$GPGSA,A,3,10,22,32,,,,,,,,,,7.74,5.91,5.00*0E
$GBGSA,A,3,22,21,44,,,,,,,,,,7.74,5.91,5.00*1F
$GNRMC,071425.00,A,3032.5005,N,10403.1055,E,0.29,162.10,270922,,,A*43
$GNVTG,162.10,T,,M,0.293,N,0.544,K*47
$GNGGA,071425.00,3032.4958,N,10403.1143,E,1,6,5.90,491.234,M,-35.79,M,,*62
$GBGSV,3,1,10,22,50,330,39,21,07,297,42,44,18,269,42,19,50,065,*65
$GBGSV,3,2,10,20,09,098,,35,14,216,,36,57,134,,38,48,154,*61
$GBGSV,3,3,10,39,70,001,,46,36,057,,,,,,,,,*63
$GPGSV,4,1,13,10,62,342,32,22,25,270,43,32,45,294,44,12,21,103,*77
$GPGSV,4,2,13,15,07,074,,18,29,180,,23,69,077,,25,20,141,*79
$GPGSV,4,3,13,31,11,213,,194,30,117,,196,58,104,,199,46,140,*46
$GPGSV,4,4,13,24,36,045,,,,,,,,,,,,,*49
$GPGSA,A,3,10,22,32,,,,,,,,,,7.74,5.90,5.00*0F
$GBGSA,A,3,22,21,44,,,,,,,,,,7.74,5.90,5.00*1E
$GNRMC,071426.00,A,3032.5002,N,10403.1061,E,0.38,272.69,270922,,,A*4C
$GNVTG,272.69,T,,M,0.381,N,0.705,K*4E
$GNGGA,071426.00,3032.4960,N,10403.1136,E,1,6,5.90,491.888,M,-35.79,M,,*65
$GBGSV,3,1,10,22,50,330,39,21,07,297,42,44,18,269,42,19,50,065,*65
$GBGSV,3,2,10,20,09,098,,35,14,216,,36,57,134,,38,48,154,*61
$GBGSV,3,3,10,39,70,001,,46,36,057,,,,,,,,,*63
$GPGSV,4,1,13,10,62,342,31,22,25,270,42,32,45,294,44,12,21,103,*75
$GPGSV,4,2,13,15,07,074,,18,29,180,,23,69,077,,25,20,141,*79
$GPGSV,4,3,13,31,11,213,,194,30,117,,196,58,104,,199,46,140,*46
$GPGSV,4,4,13,24,36,045,,,,,,,,,,,,,*49
$GPGSA,A,3,10,22,32,,,,,,,,,,7.74,5.90,5.00*0F
$GBGSA,A,3,22,21,44,,,,,,,,,,7.74,5.90,5.00*1E
$GNRMC,071427.00,A,3032.4998,N,10403.1065,E,0.84,282.34,270922,,,A*42
$GNVTG,282.34,T,,M,0.848,N,1.571,K*47
$GNGGA,071427.00,3032.4976,N,10403.1132,E,1,6,5.90,494.932,M,-35.79,M,,*62
$GBGSV,3,1,10,22,50,330,39,21,07,297,42,44,18,269,40,19,50,065,*67
$GBGSV,3,2,10,20,09,098,,35,14,216,,36,57,134,,38,48,154,*61
$GBGSV,3,3,10,39,70,001,,46,36,057,,,,,,,,,*63
$GPGSV,4,1,13,10,62,342,31,22,25,270,42,32,45,294,44,12,21,103,*75
$GPGSV,4,2,13,15,07,074,,18,29,180,,23,69,077,,25,20,141,*79
$GPGSV,4,3,13,31,11,213,,194,30,117,,196,58,104,,199,46,140,*46
$GPGSV,4,4,13,24,36,045,,,,,,,,,,,,,*49
$GPGSA,A,3,10,22,32,,,,,,,,,,7.73,5.90,5.00*08
$GBGSA,A,3,22,21,44,,,,,,,,,,7.73,5.90,5.00*19
$GNRMC,071428.00,A,3032.4984,N,10403.1070,E,0.41,254.04,270922,,,A*45
$GNVTG,254.04,T,,M,0.413,N,0.765,K*4B
$GNGGA,071428.00,3032.4977,N,10403.1127,E,1,6,5.90,495.415,M,-35.79,M,,*61
$GBGSV,3,1,10,22,50,330,39,21,07,297,42,44,18,269,40,19,50,065,*67
$GBGSV,3,2,10,20,09,098,,35,14,216,,36,57,134,,38,48,154,*61
$GBGSV,3,3,10,39,70,001,,46,36,057,,,,,,,,,*63
$GPGSV,4,1,13,10,62,342,31,22,25,270,41,32,45,294,44,12,21,103,*76
$GPGSV,4,2,13,15,07,074,,18,29,180,,23,69,077,,25,20,141,*79
$GPGSV,4,3,13,31,11,213,,194,30,117,,196,58,104,,199,46,140,*46
$GPGSV,4,4,13,24,36,045,,,,,,,,,,,,,*49
$GPGSA,A,3,10,22,32,,,,,,,,,,7.73,5.90,5.00*08
$GBGSA,A,3,22,21,44,,,,,,,,,,7.73,5.90,5.00*19
$GNRMC,071429.00,A,3032.4968,N,10403.1074,E,0.05,185.42,270922,,,A*4F
$GNVTG,185.42,T,,M,0.059,N,0.109,K*40
$GNGGA,071429.00,3032.4977,N,10403.1123,E,1,6,5.90,495.729,M,-35.79,M,,*68
$GBGSV,3,1,10,22,50,330,39,21,07,297,42,44,18,269,39,19,50,065,*69
$GBGSV,3,2,10,20,09,098,,35,14,216,,36,57,134,,38,48,154,*61
$GBGSV,3,3,10,39,70,001,,46,36,057,,,,,,,,,*63
$GPGSV,4,1,13,10,62,342,30,22,25,270,41,32,45,294,44,12,21,103,*77
$GPGSV,4,2,13,15,07,074,,18,29,180,,23,69,077,,25,20,141,*79
$GPGSV,4,3,13,31,11,213,,194,30,117,,196,58,104,,199,46,140,*46
$GPGSV,4,4,13,24,36,045,,,,,,,,,,,,,*49
$GPGSA,A,3,10,22,32,,,,,,,,,,7.73,5.90,4.99*09
$GBGSA,A,3,22,21,44,,,,,,,,,,7.73,5.90,4.99*18
$GNRMC,071430.00,A,3032.4947,N,10403.1098,E,0.74,124.51,270922,,,A*47
$GNVTG,124.51,T,,M,0.740,N,1.372,K*49
$GNGGA,071430.00,3032.4975,N,10403.1120,E,1,6,5.90,496.125,M,-35.79,M,,*68
$GBGSV,3,1,10,22,50,330,38,21,07,297,42,44,18,269,38,19,50,065,*69
$GBGSV,3,2,10,20,09,098,,35,14,216,,36,57,134,,38,48,154,*61
$GBGSV,3,3,10,39,70,001,,46,36,057,,,,,,,,,*63
$GPGSV,4,1,13,10,62,342,29,22,25,270,41,32,45,294,43,12,21,103,*78
$GPGSV,4,2,13,15,07,074,,18,29,180,,23,69,077,,25,20,141,*79
$GPGSV,4,3,13,31,11,213,,194,30,117,,196,58,104,,199,46,140,*46
$GPGSV,4,4,13,24,36,045,,,,,,,,,,,,,*49
$GPGSA,A,3,10,22,32,,,,,,,,,,7.73,5.90,4.99*09
$GBGSA,A,3,22,21,44,,,,,,,,,,7.73,5.90,4.99*18
$GNRMC,071431.00,A,3032.4911,N,10403.1146,E,0.22,138.12,270922,,,A*4E
$GNVTG,138.12,T,,M,0.227,N,0.421,K*47
$GNGGA,071431.00,3032.4971,N,10403.1122,E,1,6,5.89,496.128,M,-35.79,M,,*6A
$GBGSV,3,1,10,22,50,330,39,21,07,297,43,44,18,269,38,19,50,065,*69
$GBGSV,3,2,10,20,09,098,,35,14,216,,36,57,134,,38,48,154,*61
$GBGSV,3,3,10,39,70,001,,46,36,057,,,,,,,,,*63
$GPGSV,4,1,13,10,62,342,28,22,25,270,41,32,45,294,44,12,21,103,*7E
$GPGSV,4,2,13,15,07,074,,18,29,180,,23,69,077,,25,20,141,*79
$GPGSV,4,3,13,31,11,213,,194,30,117,,196,58,104,,199,46,140,*46
$GPGSV,4,4,13,24,36,045,,,,,,,,,,,,,*49
$GPGSA,A,3,10,22,32,,,,,,,,,,7.73,5.89,4.99*01
$GBGSA,A,3,22,21,44,,,,,,,,,,7.73,5.89,4.99*10
$GNRMC,071432.00,A,3032.4875,N,10403.1201,E,0.29,186.52,270922,,,A*44
$GNVTG,186.52,T,,M,0.290,N,0.538,K*43
$GNGGA,071432.00,3032.4965,N,10403.1127,E,1,6,5.89,495.919,M,-35.79,M,,*60
$GBGSV,3,1,10,22,50,330,38,21,07,297,42,44,18,269,38,19,50,065,*69
$GBGSV,3,2,10,20,09,098,,35,14,216,,36,57,134,,38,48,154,*61
$GBGSV,3,3,10,39,70,001,,46,36,057,,,,,,,,,*63
$GPGSV,4,1,13,10,62,342,28,22,25,270,40,32,45,294,43,12,21,103,*78
$GPGSV,4,2,13,15,07,074,,18,29,180,,23,69,077,,25,20,141,*79
$GPGSV,4,3,13,31,11,213,,194,30,117,,196,58,104,,199,46,140,*46
$GPGSV,4,4,13,24,36,045,,,,,,,,,,,,,*49
$GPGSA,A,3,10,22,32,,,,,,,,,,7.72,5.89,4.99*00
$GBGSA,A,3,22,21,44,,,,,,,,,,7.72,5.89,4.99*11
$GNRMC,071433.00,A,3032.4853,N,10403.1250,E,1.19,123.05,270922,,,A*4A
$GNVTG,123.05,T,,M,1.198,N,2.220,K*48
$GNGGA,071433.00,3032.4958,N,10403.1134,E,1,6,5.89,495.383,M,-35.79,M,,*64
$GBGSV,3,1,10,22,50,330,38,21,07,297,42,44,18,269,39,19,50,065,*68
$GBGSV,3,2,10,20,09,098,,35,14,216,,36,57,134,,38,48,154,*61
$GBGSV,3,3,10,39,70,001,,46,36,057,,,,,,,,,*63
$GPGSV,4,1,13,10,62,342,27,22,25,270,40,32,45,294,43,12,21,103,*77
$GPGSV,4,2,13,15,07,074,,18,29,180,,23,69,077,,25,20,141,*79
$GPGSV,4,3,13,31,11,213,,194,30,117,,196,58,104,,199,46,140,*46
$GPGSV,4,4,13,24,36,045,,,,,,,,,,,,,*49
$GPGSA,A,3,10,22,32,,,,,,,,,,7.72,5.89,4.99*00
$GBGSA,A,3,22,21,44,,,,,,,,,,7.72,5.89,4.99*11
$GNRMC,071434.00,A,3032.4843,N,10403.1288,E,0.47,279.55,270922,,,A*4A
$GNVTG,279.55,T,,M,0.474,N,0.879,K*43
$GNGGA,071434.00,3032.4951,N,10403.1143,E,1,6,5.89,494.493,M,-35.79,M,,*6D
$GBGSV,3,1,10,22,50,330,38,21,07,297,42,44,18,269,39,19,50,065,*68
$GBGSV,3,2,10,20,09,098,,35,14,216,,36,57,134,,38,48,154,*61
$GBGSV,3,3,10,39,70,001,,46,36,057,,,,,,,,,*63
$GPGSV,4,1,13,10,62,342,28,22,25,270,41,32,45,294,43,12,21,103,*79
$GPGSV,4,2,13,15,07,074,,18,29,180,,23,69,077,,25,20,141,*79
$GPGSV,4,3,13,31,11,213,,194,30,117,,196,58,104,,199,46,140,*46
$GPGSV,4,4,13,24,36,045,,,,,,,,,,,,,*49
$GPGSA,A,3,10,22,32,,,,,,,,,,7.72,5.89,4.99*00
$GBGSA,A,3,22,21,44,,,,,,,,,,7.72,5.89,4.99*11
$GNRMC,071435.00,A,3032.4832,N,10403.1310,E,0.23,96.96,270922,,,A*73
$GNVTG,96.96,T,,M,0.230,N,0.426,K*7F
$GNGGA,071435.00,3032.4944,N,10403.1152,E,1,7,5.89,493.886,M,-35.79,M,,*66
$GBGSV,3,1,10,22,50,330,38,21,07,297,42,44,18,269,40,19,50,065,*66
$GBGSV,3,2,10,20,09,098,,35,14,216,,36,57,134,,38,48,154,*61
$GBGSV,3,3,10,39,70,001,,46,36,057,,,,,,,,,*63
$GPGSV,4,1,13,10,62,342,29,22,25,270,41,32,45,294,43,31,,,31*4A
$GPGSV,4,2,13,12,21,103,,15,07,074,,18,29,180,,23,69,077,*7A
$GPGSV,4,3,13,25,20,141,,194,30,117,,196,58,104,,199,46,140,*45
$GPGSV,4,4,13,24,36,045,,,,,,,,,,,,,*49
$GPGSA,A,3,10,22,32,,,,,,,,,,7.72,5.89,4.98*01
$GBGSA,A,3,22,21,44,,,,,,,,,,7.72,5.89,4.98*10
$GNRMC,071436.00,A,3032.4854,N,10403.1289,E,0.77,305.56,270922,,,A*45
$GNVTG,305.56,T,,M,0.772,N,1.430,K*4F
$GNGGA,071436.00,3032.4940,N,10403.1160,E,1,7,5.89,493.298,M,-35.79,M,,*65
$GBGSV,3,1,10,22,50,330,38,21,07,297,42,44,18,269,40,19,50,065,*66
$GBGSV,3,2,10,20,09,098,,35,14,216,,36,57,134,,38,48,154,*61
$GBGSV,3,3,10,39,70,001,,46,36,057,,,,,,,,,*63
$GPGSV,4,1,13,10,62,342,30,22,25,270,41,32,45,294,44,31,,,30*44
$GPGSV,4,2,13,12,21,103,,15,07,074,,18,29,180,,23,69,077,*7A
$GPGSV,4,3,13,25,20,141,,194,30,117,,196,58,104,,199,46,140,*45
$GPGSV,4,4,13,24,36,045,,,,,,,,,,,,,*49
$GPGSA,A,3,10,22,32,,,,,,,,,,7.71,5.89,4.98*02
$GBGSA,A,3,22,21,44,,,,,,,,,,7.71,5.89,4.98*13
$GNRMC,071437.00,A,3032.4875,N,10403.1266,E,0.36,135.91,270922,,,A*49
$GNVTG,135.91,T,,M,0.367,N,0.680,K*4D
$GNGGA,071437.00,3032.4937,N,10403.1165,E,1,7,5.88,493.146,M,-35.79,M,,*60
$GBGSV,3,1,10,22,50,330,37,21,07,297,42,44,18,269,42,19,50,065,*6B
$GBGSV,3,2,10,20,09,098,,35,14,216,,36,57,134,,38,48,154,*61
$GBGSV,3,3,10,39,70,001,,46,36,057,,,,,,,,,*63
$GPGSV,4,1,13,10,62,342,31,22,25,270,42,32,45,294,44,31,,,30*46
$GPGSV,4,2,13,12,21,103,,15,07,074,,18,29,180,,23,69,077,*7A
$GPGSV,4,3,13,25,20,141,,194,30,117,,196,58,104,,199,46,140,*45
$GPGSV,4,4,13,24,36,045,,,,,,,,,,,,,*49
$GPGSA,A,3,10,22,32,,,,,,,,,,7.71,5.88,4.98*03
$GBGSA,A,3,22,21,44,,,,,,,,,,7.71,5.88,4.98*12
$GNRMC,071438.00,A,3032.4883,N,10403.1241,E,0.67,130.79,270922,,,A*4D
$GNVTG,130.79,T,,M,0.679,N,1.257,K*4B
$GNGGA,071438.00,3032.4934,N,10403.1169,E,1,7,5.88,493.026,M,-35.79,M,,*67
$GBGSV,3,1,10,22,50,330,37,21,07,297,42,44,18,269,42,19,50,065,*6B
$GBGSV,3,2,10,20,09,098,,35,14,216,,36,57,134,,38,48,154,*61
$GBGSV,3,3,10,39,70,001,,46,36,057,,,,,,,,,*63
$GPGSV,4,1,13,10,62,342,31,22,25,270,42,32,45,294,45,31,,,30*47
$GPGSV,4,2,13,12,21,103,,15,07,074,,18,29,180,,23,69,077,*7A
$GPGSV,4,3,13,25,20,141,,194,30,117,,196,58,104,,199,46,140,*45
$GPGSV,4,4,13,24,36,045,,,,,,,,,,,,,*49
$GPGSA,A,3,10,22,32,,,,,,,,,,7.71,5.88,4.98*03
$GBGSA,A,3,22,21,44,,,,,,,,,,7.71,5.88,4.98*12
$GNRMC,071439.00,A,3032.4898,N,10403.1223,E,0.59,129.61,270922,,,A*4E
$GNVTG,129.61,T,,M,0.596,N,1.104,K*4D
$GNGGA,071439.00,3032.4932,N,10403.1171,E,1,7,5.88,493.015,M,-35.79,M,,*69
$GBGSV,3,1,10,22,50,330,38,21,07,297,42,44,18,269,43,19,50,065,*65
$GBGSV,3,2,10,20,09,098,,35,14,216,,36,57,134,,38,48,154,*61
$GBGSV,3,3,10,39,70,001,,46,36,057,,,,,,,,,*63
$GPGSV,4,1,13,10,62,342,31,22,25,270,43,32,45,294,46,31,,,31*44
$GPGSV,4,2,13,12,21,103,,15,07,074,,18,29,180,,23,69,077,*7A
$GPGSV,4,3,13,25,20,141,,194,30,117,,196,58,104,,199,46,140,*45
$GPGSV,4,4,13,24,36,045,,,,,,,,,,,,,*49
$GPGSA,A,3,10,22,32,,,,,,,,,,7.71,5.88,4.98*03
$GBGSA,A,3,22,21,44,,,,,,,,,,7.71,5.88,4.98*12
$GNRMC,071440.00,A,3032.4914,N,10403.1204,E,0.18,315.46,270922,,,A*4D
$GNVTG,315.46,T,,M,0.186,N,0.345,K*46
$GNGGA,071440.00,3032.4932,N,10403.1172,E,1,7,5.88,493.085,M,-35.79,M,,*6D
$GBGSV,3,1,10,22,50,330,38,21,07,297,42,44,18,269,44,19,50,065,*62
$GBGSV,3,2,10,20,09,098,,35,14,216,,36,57,134,,38,48,154,*61
$GBGSV,3,3,10,39,70,001,,46,36,057,,,,,,,,,*63
$GPGSV,4,1,13,10,62,342,31,22,25,270,43,32,45,294,46,31,,,30*45
$GPGSV,4,2,13,12,21,103,,15,07,074,,18,29,180,,23,69,077,*7A
$GPGSV,4,3,13,25,20,141,,194,30,117,,196,58,104,,199,46,140,*45
$GPGSV,4,4,13,24,36,045,,,,,,,,,,,,,*49
$GPGSA,A,3,10,22,32,,,,,,,,,,7.70,5.88,4.97*0D
$GBGSA,A,3,22,21,44,,,,,,,,,,7.70,5.88,4.97*1C
$GNRMC,071441.00,A,3032.4923,N,10403.1197,E,0.46,112.80,270922,,,A*45
$GNVTG,112.80,T,,M,0.468,N,0.867,K*47
$GNGGA,071441.00,3032.4932,N,10403.1173,E,1,7,5.88,493.136,M,-35.79,M,,*64
$GBGSV,3,1,10,22,50,330,38,21,07,297,43,44,18,269,44,19,50,065,*63
$GBGSV,3,2,10,20,09,098,,35,14,216,,36,57,134,,38,48,154,*61
$GBGSV,3,3,10,39,70,001,,46,36,057,,,,,,,,,*63
$GPGSV,4,1,13,10,62,342,32,22,25,270,44,32,45,294,47,31,,,30*40
$GPGSV,4,2,13,12,21,103,,15,07,074,,18,29,180,,23,69,077,*7A
$GPGSV,4,3,13,25,20,141,,194,30,117,,196,58,104,,199,46,140,*45
$GPGSV,4,4,13,24,36,045,,,,,,,,,,,,,*49
$GPGSA,A,3,10,22,32,,,,,,,,,,7.70,5.88,4.97*0D
$GBGSA,A,3,22,21,44,,,,,,,,,,7.70,5.88,4.97*1C
$GNRMC,071442.00,A,3032.4928,N,10403.1193,E,0.83,121.69,270922,,,A*47
$GNVTG,121.69,T,,M,0.839,N,1.555,K*45
$GNGGA,071442.00,3032.4932,N,10403.1174,E,1,7,5.88,493.168,M,-35.79,M,,*6B
$GBGSV,3,1,10,22,50,330,39,21,07,297,43,44,18,269,45,19,50,065,*63
$GBGSV,3,2,10,20,09,098,,35,14,216,,36,57,134,,38,48,154,*61
$GBGSV,3,3,10,39,70,001,,46,36,057,,,,,,,,,*63
$GPGSV,4,1,13,10,62,342,31,22,25,270,45,32,45,294,48,31,,,30*4D
$GPGSV,4,2,13,12,21,103,,15,07,074,,18,29,180,,23,69,077,*7A
$GPGSV,4,3,13,25,20,141,,194,30,117,,196,58,104,,199,46,140,*45
$GPGSV,4,4,13,24,36,045,,,,,,,,,,,,,*49
$GPGSA,A,3,10,22,32,,,,,,,,,,7.70,5.88,4.97*0D
$GBGSA,A,3,22,21,44,,,,,,,,,,7.70,5.88,4.97*1C
$GNRMC,071443.00,A,3032.4934,N,10403.1197,E,0.65,140.76,270922,,,A*4E
$GNVTG,140.76,T,,M,0.656,N,1.215,K*48
$GNGGA,071443.00,3032.4932,N,10403.1174,E,1,7,5.88,493.310,M,-35.79,M,,*67
$GBGSV,3,1,10,22,50,330,38,21,07,297,43,44,18,269,44,19,50,065,*63
$GBGSV,3,2,10,20,09,098,,35,14,216,,36,57,134,,38,48,154,*61
$GBGSV,3,3,10,39,70,001,,46,36,057,,,,,,,,,*63
$GPGSV,4,1,13,10,62,342,30,22,25,270,45,32,45,294,47,31,,,30*43
$GPGSV,4,2,13,12,21,103,,15,07,074,,18,29,180,,23,69,077,*7A
$GPGSV,4,3,13,25,20,141,,194,30,117,,196,58,104,,199,46,140,*45
$GPGSV,4,4,13,24,36,045,,,,,,,,,,,,,*49
$GPGSA,A,3,10,22,32,,,,,,,,,,7.70,5.88,4.97*0D
$GBGSA,A,3,22,21,44,,,,,,,,,,7.70,5.88,4.97*1C
$GNRMC,071444.00,A,3032.4937,N,10403.1207,E,0.52,128.51,270922,,,A*4F
$GNVTG,128.51,T,,M,0.520,N,0.963,K*4A
$GNGGA,071444.00,3032.4932,N,10403.1175,E,1,7,5.87,493.296,M,-35.79,M,,*61
$GBGSV,3,1,10,22,50,330,38,21,07,297,43,44,18,269,45,19,50,065,*62
$GBGSV,3,2,10,20,09,098,,35,14,216,,36,57,134,,38,48,154,*61
$GBGSV,3,3,10,39,70,001,,46,36,057,,,,,,,,,*63
$GPGSV,4,1,13,10,62,342,29,22,25,270,45,32,45,294,47,31,,,30*4B
$GPGSV,4,2,13,12,21,103,,15,07,074,,18,29,180,,23,69,077,*7A
$GPGSV,4,3,13,25,20,141,,194,30,117,,196,58,104,,199,46,140,*45
$GPGSV,4,4,13,24,36,045,,,,,,,,,,,,,*49
$GPGSA,A,3,10,22,32,,,,,,,,,,7.69,5.87,4.97*0A
$GBGSA,A,3,22,21,44,,,,,,,,,,7.69,5.87,4.97*1B
$GNRMC,071445.00,A,3032.4936,N,10403.1224,E,0.15,249.27,270922,,,A*48
$GNVTG,249.27,T,,M,0.156,N,0.290,K*4D
$GNGGA,071445.00,3032.4932,N,10403.1177,E,1,7,5.87,493.206,M,-35.79,M,,*6B
$GBGSV,3,1,10,22,50,330,38,21,07,297,43,44,18,269,45,19,50,066,*61
$GBGSV,3,2,10,20,09,098,,35,14,216,,36,57,133,,38,48,154,*66
$GBGSV,3,3,10,39,70,001,,46,36,057,,,,,,,,,*63
$GPGSV,4,1,13,10,62,342,30,22,25,270,46,32,45,294,46,31,,,29*49
$GPGSV,4,2,13,12,21,103,,15,07,074,,18,28,180,,23,69,079,*75
$GPGSV,4,3,13,25,20,141,,194,30,117,,196,58,104,,199,46,140,*45
$GPGSV,4,4,13,24,36,044,,,,,,,,,,,,,*48
$GPGSA,A,3,10,22,32,,,,,,,,,,7.69,5.87,4.97*0A
$GBGSA,A,3,22,21,44,,,,,,,,,,7.69,5.87,4.97*1B
$GNRMC,071446.00,A,3032.4933,N,10403.1243,E,0.52,278.26,270922,,,A*4F
$GNVTG,278.26,T,,M,0.522,N,0.967,K*4A
$GNGGA,071446.00,3032.4932,N,10403.1179,E,1,7,5.87,493.038,M,-35.79,M,,*69
$GBGSV,3,1,10,22,50,330,37,21,07,297,43,44,18,269,44,19,50,066,*6F
$GBGSV,3,2,10,20,09,098,,35,14,216,,36,57,133,,38,48,154,*66
$GBGSV,3,3,10,39,70,001,,46,36,057,,,,,,,,,*63
$GPGSV,4,1,13,10,62,342,29,22,25,270,47,32,45,294,47,31,,,30*49
$GPGSV,4,2,13,12,21,103,,15,07,074,,18,28,180,,23,69,079,*75
$GPGSV,4,3,13,25,20,141,,194,30,117,,196,58,104,,199,46,140,*45
$GPGSV,4,4,13,24,36,044,,,,,,,,,,,,,*48
$GPGSA,A,3,10,22,32,,,,,,,,,,7.69,5.87,4.96*0B
$GBGSA,A,3,22,21,44,,,,,,,,,,7.69,5.87,4.96*1A
$GNRMC,071447.00,A,3032.4922,N,10403.1277,E,0.12,116.85,270922,,,A*4F
$GNVTG,116.85,T,,M,0.123,N,0.229,K*4C
$GNGGA,071447.00,3032.4932,N,10403.1182,E,1,7,5.87,492.790,M,-35.79,M,,*68
$GBGSV,3,1,10,22,50,330,38,21,07,297,43,44,18,269,43,19,50,066,*67
$GBGSV,3,2,10,20,09,098,,35,14,216,,36,57,133,,38,48,154,*66
$GBGSV,3,3,10,39,70,001,,46,36,057,,,,,,,,,*63
$GPGSV,4,1,13,10,62,342,29,22,25,270,47,32,45,294,47,31,,,30*49
$GPGSV,4,2,13,12,21,103,,15,07,074,,18,28,180,,23,69,079,*75
$GPGSV,4,3,13,25,20,141,,194,30,117,,196,58,104,,199,46,140,*45
$GPGSV,4,4,13,24,36,044,,,,,,,,,,,,,*48
$GPGSA,A,3,10,22,32,,,,,,,,,,7.69,5.87,4.96*0B
$GBGSA,A,3,22,21,44,,,,,,,,,,7.69,5.87,4.96*1A
$GNRMC,071448.00,A,3032.4898,N,10403.1322,E,1.29,132.09,270922,,,A*4A
$GNVTG,132.09,T,,M,1.295,N,2.400,K*4E
$GNGGA,071448.00,3032.4931,N,10403.1186,E,1,7,5.87,492.375,M,-35.79,M,,*6F
$GBGSV,3,1,10,22,50,330,38,21,07,297,43,44,18,269,43,19,50,066,*67
$GBGSV,3,2,10,20,09,098,,35,14,216,,36,57,133,,38,48,154,*66
$GBGSV,3,3,10,39,70,001,,46,36,057,,,,,,,,,*63
$GPGSV,4,1,13,10,62,342,29,22,25,270,47,32,45,294,47,31,,,30*49
$GPGSV,4,2,13,12,21,103,,15,07,074,,18,28,180,,23,69,079,*75
$GPGSV,4,3,13,25,20,141,,194,30,117,,196,58,104,,199,46,140,*45
$GPGSV,4,4,13,24,36,044,,,,,,,,,,,,,*48
$GPGSA,A,3,10,22,32,,,,,,,,,,7.69,5.87,4.96*0B
$GBGSA,A,3,22,21,44,,,,,,,,,,7.69,5.87,4.96*1A
$GNRMC,071449.00,A,3032.4875,N,10403.1372,E,0.93,124.56,270922,,,A*40
$GNVTG,124.56,T,,M,0.938,N,1.738,K*45
$GNGGA,071449.00,3032.4929,N,10403.1192,E,1,7,5.87,491.746,M,-35.79,M,,*65
$GBGSV,3,1,10,22,50,330,38,21,07,297,43,44,18,269,43,19,50,066,*67
$GBGSV,3,2,10,20,09,098,,35,14,216,,36,57,133,,38,48,154,*66
$GBGSV,3,3,10,39,70,001,,46,36,057,,,,,,,,,*63
$GPGSV,4,1,13,10,62,342,29,22,25,270,47,32,45,294,48,31,,,31*47
$GPGSV,4,2,13,12,21,103,,15,07,074,,18,28,180,,23,69,079,*75
$GPGSV,4,3,13,25,20,141,,194,30,117,,196,58,104,,199,46,140,*45
$GPGSV,4,4,13,24,36,044,,,,,,,,,,,,,*48
$GPGSA,A,3,10,22,32,,,,,,,,,,7.68,5.87,4.96*0A
$GBGSA,A,3,22,21,44,,,,,,,,,,7.68,5.87,4.96*1B
$GNRMC,071450.00,A,3032.4862,N,10403.1407,E,0.76,289.63,270922,,,A*42
$GNVTG,289.63,T,,M,0.766,N,1.418,K*43
$GNGGA,071450.00,3032.4928,N,10403.1198,E,1,7,5.86,491.049,M,-35.79,M,,*6F
$GBGSV,3,1,10,22,50,330,38,21,07,297,43,44,18,269,42,19,50,066,*66
$GBGSV,3,2,10,20,09,098,,35,14,216,,36,57,133,,38,48,154,*66
$GBGSV,3,3,10,39,70,001,,46,36,057,,,,,,,,,*63
$GPGSV,4,1,13,10,62,342,28,22,25,270,47,32,45,294,47,31,,,31*49
$GPGSV,4,2,13,12,21,103,,15,07,074,,18,28,180,,23,69,079,*75
$GPGSV,4,3,13,25,20,141,,194,30,117,,196,58,104,,199,46,140,*45
$GPGSV,4,4,13,24,36,044,,,,,,,,,,,,,*48
$GPGSA,A,3,10,22,32,,,,,,,,,,7.68,5.86,4.96*0B
$GBGSA,A,3,22,21,44,,,,,,,,,,7.68,5.86,4.96*1A
$GNRMC,071451.00,A,3032.4846,N,10403.1444,E,0.38,129.01,270922,,,A*45
$GNVTG,129.01,T,,M,0.381,N,0.705,K*4D
$GNGGA,071451.00,3032.4925,N,10403.1205,E,1,7,5.86,490.439,M,-35.79,M,,*66
$GBGSV,3,1,10,22,50,330,38,21,07,297,43,44,18,269,42,19,50,066,*66
$GBGSV,3,2,10,20,09,098,,35,14,216,,36,57,133,,38,48,154,*66
$GBGSV,3,3,10,39,70,001,,46,36,057,,,,,,,,,*63
$GPGSV,4,1,13,10,62,342,28,22,25,270,47,32,45,294,47,31,,,31*49
$GPGSV,4,2,13,12,21,103,,15,07,074,,18,28,180,,23,69,079,*75
$GPGSV,4,3,13,25,20,141,,194,30,117,,196,58,104,,199,46,140,*45
$GPGSV,4,4,13,24,36,044,,,,,,,,,,,,,*48
$GPGSA,A,3,10,22,32,,,,,,,,,,7.68,5.86,4.96*0B
$GBGSA,A,3,22,21,44,,,,,,,,,,7.68,5.86,4.96*1A
$GNRMC,071452.00,A,3032.4836,N,10403.1460,E,0.78,144.82,270922,,,A*43
$GNVTG,144.82,T,,M,0.786,N,1.455,K*49
$GNGGA,071452.00,3032.4922,N,10403.1212,E,1,7,5.86,489.618,M,-35.79,M,,*6D
$GBGSV,3,1,10,22,50,330,38,21,07,297,43,44,18,269,41,19,50,066,*65
$GBGSV,3,2,10,20,09,098,,35,14,216,,36,57,133,,38,48,154,*66
$GBGSV,3,3,10,39,70,001,,46,36,057,,,,,,,,,*63
$GPGSV,4,1,13,10,62,342,29,22,25,270,48,32,45,294,47,31,,,31*47
$GPGSV,4,2,13,12,21,103,,15,07,074,,18,28,180,,23,69,079,*75
$GPGSV,4,3,13,25,20,141,,194,30,117,,196,58,104,,199,46,140,*45
$GPGSV,4,4,13,24,36,044,,,,,,,,,,,,,*48
$GPGSA,A,3,10,22,32,,,,,,,,,,7.68,5.86,4.95*08
$GBGSA,A,3,22,21,44,,,,,,,,,,7.68,5.86,4.95*19
$GNRMC,071453.00,A,3032.4832,N,10403.1466,E,1.02,115.49,270922,,,A*4F
$GNVTG,115.49,T,,M,1.023,N,1.896,K*40
$GNGGA,071453.00,3032.4920,N,10403.1219,E,1,7,5.86,488.815,M,-35.79,M,,*67
$GBGSV,3,1,10,22,50,330,39,21,07,297,43,44,18,269,42,19,50,066,*67
$GBGSV,3,2,10,20,09,098,,35,14,216,,36,57,133,,38,48,154,*66
$GBGSV,3,3,10,39,70,001,,46,36,057,,,,,,,,,*63
$GPGSV,4,1,13,10,62,342,29,22,25,270,48,32,45,294,47,31,,,32*44
$GPGSV,4,2,13,12,21,103,,15,07,074,,18,28,180,,23,69,079,*75
$GPGSV,4,3,13,25,20,141,,194,30,117,,196,58,104,,199,46,140,*45
$GPGSV,4,4,13,24,36,044,,,,,,,,,,,,,*48
$GPGSA,A,3,10,22,32,,,,,,,,,,7.67,5.86,4.95*07
$GBGSA,A,3,22,21,44,,,,,,,,,,7.67,5.86,4.95*16
$GNRMC,071454.00,A,3032.4820,N,10403.1469,E,0.76,131.76,270922,,,A*4C
$GNVTG,131.76,T,,M,0.768,N,1.423,K*41
$GNGGA,071454.00,3032.4917,N,10403.1226,E,1,7,5.86,488.065,M,-35.79,M,,*67
$GBGSV,3,1,10,22,50,330,39,21,07,297,42,44,18,269,41,19,50,066,*65
$GBGSV,3,2,10,20,09,098,,35,14,216,,36,57,133,,38,48,154,*66
$GBGSV,3,3,10,39,70,001,,46,36,057,,,,,,,,,*63
$GPGSV,4,1,13,10,62,342,28,22,25,270,48,32,45,294,45,31,,,32*47
$GPGSV,4,2,13,12,21,103,,15,07,074,,18,28,180,,23,69,079,*75
$GPGSV,4,3,13,25,20,141,,194,30,117,,196,58,104,,199,46,140,*45
$GPGSV,4,4,13,24,36,044,,,,,,,,,,,,,*48
$GPGSA,A,3,10,22,32,,,,,,,,,,7.67,5.86,4.95*07
$GBGSA,A,3,22,21,44,,,,,,,,,,7.67,5.86,4.95*16
$GNRMC,071455.00,A,3032.4796,N,10403.1501,E,0.14,264.33,270922,,,A*46
$GNVTG,264.33,T,,M,0.142,N,0.263,K*4E
$GNGGA,071455.00,3032.4914,N,10403.1233,E,1,7,5.86,487.309,M,-35.79,M,,*67
$GBGSV,3,1,10,22,50,330,39,21,08,297,42,44,18,269,40,19,50,066,*6B
$GBGSV,3,2,10,20,09,098,,35,14,216,,36,57,133,,38,48,154,*66
$GBGSV,3,3,10,39,70,001,,46,36,057,,,,,,,,,*63
$GPGSV,4,1,13,10,62,342,27,22,25,270,48,32,45,294,45,31,,,32*48
$GPGSV,4,2,13,12,21,103,,15,07,074,,18,28,180,,23,69,079,*75
$GPGSV,4,3,13,25,20,141,,194,30,117,,196,58,104,,199,46,140,*45
$GPGSV,4,4,13,24,36,044,,,,,,,,,,,,,*48
$GPGSA,A,3,10,22,32,,,,,,,,,,7.67,5.86,4.95*07
$GBGSA,A,3,22,21,44,,,,,,,,,,7.67,5.86,4.95*16
$GNRMC,071456.00,A,3032.4779,N,10403.1528,E,0.07,245.20,270922,,,A*4C
$GNVTG,245.20,T,,M,0.076,N,0.141,K*4A
$GNGGA,071456.00,3032.4911,N,10403.1240,E,1,7,5.86,486.418,M,-35.79,M,,*63
$GBGSV,3,1,10,22,50,330,40,21,08,297,42,44,18,269,39,19,50,066,*6B
$GBGSV,3,2,10,20,09,098,,35,14,216,,36,57,133,,38,48,154,*66
$GBGSV,3,3,10,39,70,001,,46,36,057,,,,,,,,,*63
$GPGSV,4,1,13,10,62,342,28,22,25,270,48,32,45,294,44,31,,,33*47
$GPGSV,4,2,13,12,21,103,,15,07,074,,18,28,180,,23,69,079,*75
$GPGSV,4,3,13,25,20,141,,194,30,117,,196,58,104,,199,46,140,*45
$GPGSV,4,4,13,24,36,044,,,,,,,,,,,,,*48
$GPGSA,A,3,10,22,32,,,,,,,,,,7.67,5.86,4.95*07
$GBGSA,A,3,22,21,44,,,,,,,,,,7.67,5.86,4.95*16
$GNRMC,071457.00,A,3032.4765,N,10403.1543,E,0.41,282.64,270922,,,A*44
$GNVTG,282.64,T,,M,0.413,N,0.765,K*46
$GNGGA,071457.00,3032.4907,N,10403.1247,E,1,7,5.85,485.648,M,-35.79,M,,*65
$GBGSV,3,1,10,22,50,330,39,21,08,297,43,44,18,269,39,19,50,066,*64
$GBGSV,3,2,10,20,09,098,,35,14,216,,36,57,133,,38,48,154,*66
$GBGSV,3,3,10,39,70,001,,46,36,057,,,,,,,,,*63
$GPGSV,4,1,13,10,62,342,28,22,25,270,48,32,45,294,44,31,,,32*46
$GPGSV,4,2,13,12,21,103,,15,07,074,,18,28,180,,23,69,079,*75
$GPGSV,4,3,13,25,20,141,,194,30,117,,196,58,104,,199,46,140,*45
$GPGSV,4,4,13,24,36,044,,,,,,,,,,,,,*48
$GPGSA,A,3,10,22,32,,,,,,,,,,7.66,5.85,4.94*04
$GBGSA,A,3,22,21,44,,,,,,,,,,7.66,5.85,4.94*15
$GNRMC,071458.00,A,3032.4748,N,10403.1569,E,0.34,141.83,270922,,,A*4B
$GNVTG,141.83,T,,M,0.345,N,0.639,K*4F
$GNGGA,071458.00,3032.4849,N,10403.1383,E,1,7,5.85,473.903,M,-35.79,M,,*61
$GBGSV,3,1,10,22,50,330,38,21,08,297,42,44,18,269,39,19,50,066,*64
$GBGSV,3,2,10,20,09,098,,35,14,216,,36,57,133,,38,48,154,*66
$GBGSV,3,3,10,39,70,001,,46,36,057,,,,,,,,,*63
$GPGSV,4,1,13,10,62,342,28,22,25,271,47,32,45,294,44,31,,,33*49
$GPGSV,4,2,13,12,21,103,,15,07,074,,18,28,180,,23,69,079,*75
$GPGSV,4,3,13,25,20,141,,194,30,117,,196,58,104,,199,46,140,*45
$GPGSV,4,4,13,24,36,044,,,,,,,,,,,,,*48
$GPGSA,A,3,10,22,32,,,,,,,,,,7.66,5.85,4.94*04
$GBGSA,A,3,22,21,44,,,,,,,,,,7.66,5.85,4.94*15
$GNRMC,071459.00,A,3032.4738,N,10403.1581,E,0.39,161.64,270922,,,A*4D
$GNVTG,161.64,T,,M,0.394,N,0.730,K*40
$GNGGA,071459.00,3032.4836,N,10403.1400,E,1,7,5.85,472.339,M,-35.79,M,,*66
$GBGSV,3,1,10,22,50,330,40,21,08,297,43,44,18,269,40,19,50,066,*64
$GBGSV,3,2,10,20,09,098,,35,14,216,,36,57,133,,38,48,154,*66
$GBGSV,3,3,10,39,70,001,,46,36,057,,,,,,,,,*63
$GPGSV,4,1,13,10,62,342,29,22,25,271,48,32,45,294,44,31,,,33*47
$GPGSV,4,2,13,12,21,103,,15,07,074,,18,28,180,,23,69,079,*75
